{"version": 0.6, "generator": "Overpass API 0.7.62.11 87bfad18", "osm3s": {"timestamp_osm_base": "2026-06-10T16:24:17Z", "copyright": "The data included in this document is from www.openstreetmap.org. The data is made available under ODbL."}, "elements": [{"type": "node", "id": 452433537, "lat": 51.5249303, "lon": -0.1108724, "tags": {"addr:city": "London", "addr:postcode": "EC1R 4SQ", "addr:street": "Rosebery Avenue", "amenity": "post_office", "brand": "Post Office", "brand:wikidata": "Q1783168", "name": "Mount Pleasant Post Office", "opening_hours": "Mo-Fr 09:00-17:30; Sa 09:00-12:30", "operator": "Post Office Ltd", "ref:pol_id": "19669", "source": "pol_branch_list_2018-01-24", "source:opening_hours": "survey", "website": "https://www.postoffice.co.uk/branch-finder/0260037/mount-pleasant", "wheelchair": "yes"}}, {"type": "node", "id": 452433539, "lat": 51.5249054, "lon": -0.1108845, "tags": {"amenity": "atm", "check_date": "2025-08-24", "operator": "Post Office"}}, {"type": "node", "id": 581005262, "lat": 51.5243973, "lon": -0.1100329, "tags": {"name": "The Gazzanos Italian Deli", "shop": "convenience"}}, {"type": "node", "id": 581005278, "lat": 51.5247707, "lon": -0.1100541, "tags": {"addr:city": "London", "addr:housenumber": "88-94", "addr:postcode": "EC1R 3EA", "addr:street": "Farringdon Road", "addr:suburb": "Islington", "amenity": "restaurant", "check_date": "2025-07-21", "fhrs:id": "1067101", "name": "Quality Chop House", "opening_hours": "Mo-Sa 12:00-15:00, 18:00-23:00; Su 12:00-16:00", "phone": "+44 20 7278 1452", "source:addr": "FHRS Open Data", "website": "https://thequalitychophouse.com/"}}, {"type": "node", "id": 581005279, "lat": 51.5248882, "lon": -0.110213, "tags": {"addr:city": "London", "addr:housenumber": "100", "addr:postcode": "EC1R 3EA", "addr:street": "Farringdon Road", "check_date": "2025-07-21", "cuisine": "fish_and_chips", "email": "khopslondon@gmail.com", "name": "Khops", "opening_hours": "Mo-Sa 09:30-19:30", "phone": "+44 20 7837 5976", "shop": "hairdresser", "website": "http://khops.co/", "wheelchair": "limited"}}, {"type": "node", "id": 584430949, "lat": 51.5242001, "lon": -0.1112204, "tags": {"addr:city": "London", "addr:housenumber": "3-4", "shop": "convenience"}}, {"type": "node", "id": 584430953, "lat": 51.5242593, "lon": -0.1112016, "tags": {"name": "Antoni & Alison Shop", "shop": "clothes"}}, {"type": "node", "id": 584430955, "lat": 51.5244232, "lon": -0.1109711, "tags": {"name": "Rosebury News", "shop": "convenience"}}, {"type": "node", "id": 1029500413, "lat": 51.5237014, "lon": -0.1140857, "tags": {"amenity": "bicycle_parking", "bicycle_parking": "stands", "capacity": "8", "covered": "no"}}, {"type": "node", "id": 1508434147, "lat": 51.5229867, "lon": -0.1143482, "tags": {"amenity": "cafe"}}, {"type": "node", "id": 1682430910, "lat": 51.5234079, "lon": -0.1116371, "tags": {"addr:city": "London", "addr:housenumber": "14", "addr:postcode": "EC1R 5HA", "addr:street": "Warner Street", "name": "Clerkenwell Motors", "phone": "+44 20 7278 6375", "service": "repair", "shop": "car_repair", "website": "https://www.clerkenwellmotors.co.uk/"}}, {"type": "node", "id": 1682430916, "lat": 51.5240738, "lon": -0.1114219, "tags": {"name": "Process Supplies (London) Ltd", "shop": "photo"}}, {"type": "node", "id": 1682430986, "lat": 51.5235253, "lon": -0.1122478, "tags": {"amenity": "bicycle_parking", "bicycle_parking": "stands", "capacity": "6", "covered": "no", "maxspeed": "20 mph", "source": "photograph"}}, {"type": "node", "id": 1682431000, "lat": 51.5241784, "lon": -0.1113105, "tags": {"note": "Art shop?", "shop": "art", "source": "photograph"}}, {"type": "node", "id": 1682431003, "lat": 51.5243268, "lon": -0.1111335, "tags": {"amenity": "telephone", "booth": "K2", "check_date": "2022-01-24", "covered": "booth", "listed_status": "Grade II", "operator": "BT", "operator:wikidata": "Q593786", "source": "photograph", "wikidata": "Q27080321"}}, {"type": "node", "id": 1682431021, "lat": 51.524204, "lon": -0.1112791, "tags": {"amenity": "cafe", "name": "1st Class Cafe", "source": "photograph"}}, {"type": "node", "id": 1773643954, "lat": 51.5248533, "lon": -0.1101574, "tags": {"addr:city": "London", "addr:housenumber": "102", "addr:postcode": "EC1R 3EA", "addr:street": "Farringdon Road", "amenity": "fast_food", "cuisine": "fish_and_chips", "name": "Fryingdon Fish Bar"}}, {"type": "node", "id": 3704282527, "lat": 51.5252995, "lon": -0.1103391, "tags": {"amenity": "bicycle_parking", "bicycle_parking": "stands", "capacity": "6", "check_date": "2022-11-15", "covered": "no"}}, {"type": "node", "id": 3834448769, "lat": 51.5233253, "lon": -0.1125565, "tags": {"addr:city": "London", "addr:country": "GB", "amenity": "motorcycle_parking", "covered": "no"}}, {"type": "node", "id": 3834448771, "lat": 51.5235244, "lon": -0.1147308, "tags": {"addr:city": "London", "addr:country": "GB", "amenity": "motorcycle_parking", "covered": "no"}}, {"type": "node", "id": 3834448772, "lat": 51.5238857, "lon": -0.1119799, "tags": {"addr:city": "London", "addr:country": "GB", "amenity": "motorcycle_parking", "covered": "no"}}, {"type": "node", "id": 4181947592, "lat": 51.5244541, "lon": -0.1097861, "tags": {"amenity": "bicycle_parking", "bicycle_parking": "rack", "capacity": "16", "check_date": "2025-07-21", "covered": "no"}}, {"type": "node", "id": 4181947593, "lat": 51.5247032, "lon": -0.1099605, "tags": {"addr:city": "London", "addr:housenumber": "88-94", "addr:postcode": "EC1R 3EA", "addr:street": "Farringdon Road", "addr:suburb": "Islington", "fhrs:id": "559419", "name": "The Quality Chop House Shop", "opening_hours": "Mo-Th 11:00-19:00; Fr 10:00-20:00; Sa 09:00-18:00; Su 11:00-17:00", "phone": "+44 20 3490 6228", "shop": "butcher", "source:addr": "FHRS Open Data", "website": "https://thequalitychophouse.com/shop/", "wheelchair": "limited"}}, {"type": "node", "id": 4182125149, "lat": 51.524929, "lon": -0.1102709, "tags": {"addr:city": "London", "addr:housenumber": "102-104", "addr:postcode": "EC1R 3EA", "addr:street": "Farringdon Road", "addr:suburb": "Islington", "amenity": "restaurant", "source:addr": "FHRS Open Data"}}, {"type": "node", "id": 4392468104, "lat": 51.5245118, "lon": -0.1109977, "tags": {"amenity": "post_box", "brand": "Royal Mail", "brand:wikidata": "Q638098", "check_date": "2024-05-19", "collection_times": "Mo-Fr 19:30; Sa 12:30", "manufacturer": "Machan Eng Scotland 2012", "operator": "Royal Mail", "operator:wikidata": "Q638098", "post_box:apertures": "2", "post_box:design": "type_c", "post_box:type": "pillar", "ref": "EC1A 100;EC1A 1001", "royal_cypher": "EIIR", "royal_cypher:wikidata": "Q33102113", "source": "survey"}}, {"type": "node", "id": 5207251548, "lat": 51.5249636, "lon": -0.1141568, "tags": {"addr:city": "London", "addr:street": "Phoenix Place", "amenity": "cafe", "diet:vegetarian": "yes", "name": "The Caf\u00e9", "opening_hours": "10:00-17:00", "toilets:wheelchair": "yes", "website": "https://www.postalmuseum.org/", "wheelchair": "yes", "wheelchair:description": "Step-free by ramp and wide automatic door. Low counter, movable chairs and tables. May be used without paying to enter museum. Accessible WC without RADAR key.", "wikimedia_commons": "Category:British Postal Museum Cafe"}}, {"type": "node", "id": 5274549685, "lat": 51.5233615, "lon": -0.1147334, "tags": {"amenity": "atm", "booth": "KXCash", "brand": "Cashzone", "brand:wikidata": "Q110738461", "colour": "grey", "network": "Allpoint", "network:wikidata": "Q4733264", "operator": "Cash Zone"}}, {"type": "node", "id": 5762491651, "lat": 51.5245876, "lon": -0.1138695, "tags": {"access": "private", "amenity": "bicycle_parking", "name": "The Postal Museum - Employee Cycle Parking"}}, {"type": "node", "id": 5993913372, "lat": 51.5227932, "lon": -0.1126757, "tags": {"addr:city": "London", "addr:housenumber": "59", "addr:postcode": "WC1X 0AY", "addr:street": "Mount Pleasant", "amenity": "bar", "level": "-1", "name": "PimpShuei", "opening_hours": "We, Th 18:00-23:00; Fr, Sa 18:00-00:00"}}, {"type": "node", "id": 6525687476, "lat": 51.5236114, "lon": -0.1112268, "tags": {"amenity": "bicycle_parking", "bicycle_parking": "stands", "capacity": "10", "covered": "no", "mapillary": "470084630726738", "survey:date": "2020-02-14"}}, {"type": "node", "id": 7053829520, "lat": 51.5244666, "lon": -0.1101205, "tags": {"addr:city": "London", "addr:floor": "Ground And Basement Floor", "addr:housenumber": "171", "addr:postcode": "EC1R 3AL", "addr:street": "Farringdon Road", "addr:suburb": "Islington", "amenity": "restaurant", "check_date": "2025-07-21", "contact:facebook": "machankitchenfarringdon", "contact:instagram": "machankitchen_farringdon", "cuisine": "meat;wine", "fhrs:id": "1006163", "name": "Machan Kitchen - Sri Lankan Restaurant", "opening_hours": "Mo-Sa 12:00-14:30, 17:30-23:30; Su 12:00-21:00", "phone": "+44 20 7916 8089", "website": "https://machankitchen.co.uk/", "wheelchair": "no"}}, {"type": "node", "id": 9396819968, "lat": 51.523044, "lon": -0.1123219, "tags": {"access": "private", "amenity": "bicycle_parking", "bicycle_parking": "shed", "capacity": "6", "operator": "cyclehoop", "ref": "Bikehangar 1422"}}, {"type": "node", "id": 9669838244, "lat": 51.5249511, "lon": -0.1142743, "tags": {"access": "customers", "amenity": "bicycle_parking", "covered": "yes", "name": "The Postal Museum - Visitor Cycle Parking"}}, {"type": "node", "id": 9670036934, "lat": 51.5236134, "lon": -0.1124336, "tags": {"amenity": "cafe", "name": "Mouse Tail Coffee", "opening_hours": "Mo-Su,PH 07:00-21:00"}}, {"type": "node", "id": 9670036943, "lat": 51.5234234, "lon": -0.1125833, "tags": {"amenity": "bicycle_parking", "bicycle_parking": "stands", "capacity": "16", "covered": "no"}}, {"type": "node", "id": 9670036945, "lat": 51.523606, "lon": -0.1123666, "tags": {"amenity": "bicycle_parking", "bicycle_parking": "stands", "capacity": "4", "covered": "no"}}, {"type": "node", "id": 9670036947, "lat": 51.5257365, "lon": -0.114356, "tags": {"amenity": "bicycle_parking", "bicycle_parking": "stands", "capacity": "6", "covered": "no"}}, {"type": "node", "id": 9854482417, "lat": 51.5237688, "lon": -0.1111442, "tags": {"amenity": "bicycle_parking", "bicycle_parking": "stands", "capacity": "4", "check_date": "2022-06-29", "covered": "no"}}, {"type": "node", "id": 9893839397, "lat": 51.5236581, "lon": -0.111081, "tags": {"amenity": "restaurant", "cuisine": "persian", "name": "The Drunken Butler", "reservation": "yes", "website": "https://www.thedrunkenbutler.com/"}}, {"type": "node", "id": 9913359869, "lat": 51.5242237, "lon": -0.1105275, "tags": {"access": "permit", "amenity": "bicycle_parking", "bicycle_parking": "shed", "capacity": "6", "fee": "yes", "locked": "yes"}}, {"type": "node", "id": 9913359870, "lat": 51.5242062, "lon": -0.1104873, "tags": {"access": "permit", "amenity": "bicycle_parking", "bicycle_parking": "shed", "capacity": "6", "fee": "yes", "locked": "yes"}}, {"type": "node", "id": 9922714927, "lat": 51.5233303, "lon": -0.1110805, "tags": {"amenity": "bicycle_parking", "bicycle_parking": "stands", "capacity": "2", "covered": "no", "surface": "paving_stones"}}, {"type": "node", "id": 9922714928, "lat": 51.5231879, "lon": -0.1105265, "tags": {"amenity": "bicycle_parking", "bicycle_parking": "stands", "capacity": "2", "covered": "no", "surface": "paving_stones"}}, {"type": "node", "id": 10188404805, "lat": 51.5253947, "lon": -0.1102797, "tags": {"amenity": "telephone", "booth": "K6", "check_date": "2025-07-21", "covered": "booth"}}, {"type": "node", "id": 10238132324, "lat": 51.5233911, "lon": -0.1106405, "tags": {"addr:city": "London", "addr:housenumber": "6", "addr:street": "Bakers Yard", "name": "Naughtone", "opening_hours": "\"by appointment\"", "phone": "+44 20 3892 2788", "shop": "furniture", "url": "https://www.naughtone.com/news/our-london-showroom-is-now-officially-open/", "website": "https://www.naughtone.com/"}}, {"type": "node", "id": 10273109520, "lat": 51.5234783, "lon": -0.1116219, "tags": {"amenity": "bicycle_parking", "bicycle_parking": "stands", "capacity": "2", "ref:GB:tflcid": "RWG057469"}}, {"type": "node", "id": 10273132503, "lat": 51.5241259, "lon": -0.111473, "tags": {"amenity": "bicycle_parking", "bicycle_parking": "stands", "capacity": "8", "ref:GB:tflcid": "RWG057436"}}, {"type": "node", "id": 10275601961, "lat": 51.5245654, "lon": -0.1153464, "tags": {"amenity": "bicycle_parking", "bicycle_parking": "post_hoop", "capacity": "2", "ref:GB:tflcid": "RWG058518"}}, {"type": "node", "id": 10275601963, "lat": 51.5235997, "lon": -0.1144308, "tags": {"amenity": "bicycle_parking", "bicycle_parking": "stands", "capacity": "2", "ref:GB:tflcid": "RWG057421"}}, {"type": "node", "id": 10275601964, "lat": 51.5236727, "lon": -0.1145926, "tags": {"amenity": "bicycle_parking", "bicycle_lock": "provided", "bicycle_parking": "upright_stands", "capacity": "25", "covered": "yes", "ref:GB:tflcid": "RWG057426"}}, {"type": "node", "id": 10275601965, "lat": 51.5235915, "lon": -0.1147217, "tags": {"amenity": "bicycle_parking", "bicycle_parking": "stands", "capacity": "6", "covered": "no", "ref:GB:tflcid": "RWG057417"}}, {"type": "node", "id": 10275601966, "lat": 51.5236124, "lon": -0.1145033, "tags": {"amenity": "bicycle_parking", "bicycle_parking": "stands", "bicycle_parking:stands": "m_stand", "capacity": "8", "on_carriageway": "yes", "ref:GB:tflcid": "RWG057419"}}, {"type": "node", "id": 10275602123, "lat": 51.5236447, "lon": -0.1149531, "tags": {"amenity": "bicycle_parking", "bicycle_parking": "post_hoop", "capacity": "2", "ref:GB:tflcid": "RWG057117"}}, {"type": "node", "id": 10275602124, "lat": 51.5234546, "lon": -0.1147591, "tags": {"amenity": "bicycle_parking", "bicycle_parking": "stands", "capacity": "2", "ref:GB:tflcid": "RWG057114"}}, {"type": "node", "id": 10275602234, "lat": 51.5237585, "lon": -0.1150746, "tags": {"amenity": "bicycle_parking", "bicycle_parking": "stands", "capacity": "2", "ref:GB:tflcid": "RWG057120"}}, {"type": "node", "id": 10298193378, "lat": 51.5229669, "lon": -0.1143235, "tags": {"amenity": "fast_food", "check_date": "2025-09-10", "cuisine": "sandwich", "name": "Artisserie"}}, {"type": "node", "id": 11881067469, "lat": 51.5244269, "lon": -0.1100174, "tags": {"addr:city": "London", "addr:housenumber": "167-169", "addr:postcode": "EC1R 3AL", "addr:street": "Farringdon Road", "amenity": "restaurant", "check_date": "2025-07-21", "contact:facebook": "Great.souvlatzidiko", "contact:instagram": "greatgrillhouse", "contact:twitter": "RealHellas", "cuisine": "barbecue;greek;grill", "name": "GReat Grill House", "opening_hours": "Tu-Th 08:30-23:00; Fr-Sa 09:00-00:00; Su 10:00-23:00; Mo 08:30-16:00", "phone": "+44 7402 656633", "website": "https://www.greatgrillhouse.co.uk/", "wheelchair": "yes"}}, {"type": "node", "id": 12406939164, "lat": 51.5249156, "lon": -0.1141141, "tags": {"name": "The Postal Museum", "opening_hours": "We-Su 10:00-17:00", "operator": "The Postal Museum", "shop": "gift"}}, {"type": "node", "id": 12406939165, "lat": 51.5244847, "lon": -0.1132904, "tags": {"name": "Mail Rail Museum", "opening_hours": "We-Su 10:00-17:00", "operator": "Mail Rail Museum", "payment:app": "yes", "payment:cash": "yes", "payment:contactless": "yes", "payment:credit_cards": "yes", "payment:debit_cards": "yes", "shop": "gift"}}, {"type": "node", "id": 13018957325, "lat": 51.5230497, "lon": -0.1144726, "tags": {"amenity": "bench", "backrest": "yes"}}, {"type": "node", "id": 13452861401, "lat": 51.5246619, "lon": -0.1099394, "tags": {"amenity": "restaurant", "name": "Quality Wines", "website": "https://qualitywinesfarringdon.com/"}}, {"type": "node", "id": 13851727902, "lat": 51.5258882, "lon": -0.1124612, "tags": {"amenity": "bicycle_parking", "bicycle_parking": "stands", "capacity": "10", "covered": "no"}}, {"type": "node", "id": 13851727903, "lat": 51.5255168, "lon": -0.1131094, "tags": {"amenity": "bicycle_parking", "bicycle_parking": "stands", "capacity": "6", "covered": "no"}}, {"type": "node", "id": 13851727904, "lat": 51.5254576, "lon": -0.113219, "tags": {"amenity": "bicycle_parking", "bicycle_parking": "stands", "capacity": "8", "covered": "no"}}, {"type": "node", "id": 13851727905, "lat": 51.5253076, "lon": -0.1134448, "tags": {"amenity": "bicycle_parking", "bicycle_parking": "stands", "capacity": "12", "covered": "no"}}, {"type": "node", "id": 13851727906, "lat": 51.5258144, "lon": -0.1123079, "tags": {"amenity": "bench", "natural": "tree"}}, {"type": "node", "id": 13851727907, "lat": 51.5258644, "lon": -0.1122924, "tags": {"amenity": "bench", "armrest": "no", "backrest": "no", "material": "wood"}}, {"type": "node", "id": 13851727908, "lat": 51.5258651, "lon": -0.1123285, "tags": {"amenity": "bench", "armrest": "no", "backrest": "no", "material": "wood"}}, {"type": "node", "id": 13851727909, "lat": 51.5258311, "lon": -0.1123923, "tags": {"amenity": "bench", "armrest": "yes", "backrest": "yes", "material": "wood"}}, {"type": "node", "id": 13851727910, "lat": 51.5258074, "lon": -0.1123923, "tags": {"amenity": "bench", "armrest": "yes", "backrest": "yes", "material": "wood"}}, {"type": "node", "id": 13851727911, "lat": 51.5258285, "lon": -0.1122172, "tags": {"amenity": "bench", "armrest": "no", "backrest": "no", "material": "wood"}}, {"type": "node", "id": 13851727912, "lat": 51.5258029, "lon": -0.1122162, "tags": {"amenity": "bench", "armrest": "no", "backrest": "no", "material": "wood"}}, {"type": "node", "id": 13851727913, "lat": 51.5257709, "lon": -0.1122903, "tags": {"amenity": "bench", "armrest": "yes", "backrest": "yes", "material": "wood"}}, {"type": "node", "id": 13851727914, "lat": 51.5257702, "lon": -0.1123254, "tags": {"amenity": "bench", "armrest": "yes", "backrest": "yes", "material": "wood"}}, {"type": "node", "id": 13851727921, "lat": 51.5257697, "lon": -0.1125181, "tags": {"amenity": "bench", "armrest": "no", "backrest": "no", "material": "wood"}}, {"type": "node", "id": 13851727922, "lat": 51.525769, "lon": -0.1124821, "tags": {"amenity": "bench", "armrest": "no", "backrest": "no", "material": "wood"}}, {"type": "node", "id": 13851727923, "lat": 51.5257331, "lon": -0.1124069, "tags": {"amenity": "bench", "armrest": "no", "backrest": "no", "material": "wood"}}, {"type": "node", "id": 13851727924, "lat": 51.5257075, "lon": -0.1124058, "tags": {"amenity": "bench", "armrest": "no", "backrest": "no", "material": "wood"}}, {"type": "node", "id": 13851727925, "lat": 51.5256727, "lon": -0.1124719, "tags": {"amenity": "bench", "armrest": "no", "backrest": "no", "material": "wood"}}, {"type": "node", "id": 13851727926, "lat": 51.5256723, "lon": -0.112508, "tags": {"amenity": "bench", "armrest": "no", "backrest": "no", "material": "wood"}}, {"type": "node", "id": 13851727927, "lat": 51.5257062, "lon": -0.1125856, "tags": {"amenity": "bench", "armrest": "no", "backrest": "no", "material": "wood"}}, {"type": "node", "id": 13851727928, "lat": 51.5257318, "lon": -0.1125884, "tags": {"amenity": "bench", "armrest": "no", "backrest": "no", "material": "wood"}}, {"type": "node", "id": 13851835337, "lat": 51.5241252, "lon": -0.1136358, "tags": {"amenity": "bicycle_parking", "bicycle_parking": "stands", "capacity": "12", "covered": "yes"}}, {"type": "node", "id": 13851835338, "lat": 51.5232258, "lon": -0.1127309, "tags": {"amenity": "bicycle_parking", "bicycle_parking": "stands", "capacity": "6", "covered": "no"}}, {"type": "node", "id": 13851835339, "lat": 51.5228335, "lon": -0.1129104, "tags": {"amenity": "bicycle_parking", "bicycle_parking": "stands", "capacity": "8", "covered": "no"}}, {"type": "way", "id": 4237383, "center": {"lat": 51.5234032, "lon": -0.1141458}, "nodes": [25298520, 25298521, 25298518, 1158205091, 1158205117, 1158205084, 1158205046, 1158222354, 1158222314, 1158205042, 25298520], "tags": {"addr:city": "London", "addr:housenumber": "200", "addr:postcode": "WC1X 8XZ", "addr:street": "Gray's Inn Road", "amenity": "studio", "architect": "Foster + Partners", "building": "office", "building:cladding": "steel", "name": "ITN", "wikidata": "Q62067379", "wikimedia_commons": "Category:200 Gray's Inn Road"}}, {"type": "way", "id": 98525949, "center": {"lat": 51.5239331, "lon": -0.1115031}, "nodes": [1139831956, 1139831194, 1139830003, 1139830057, 1139831715, 1139831574, 1139831956], "tags": {"addr:city": "London", "addr:country": "GB", "addr:housenumber": "28", "addr:postcode": "WC1X 0AS", "addr:street": "Mount Pleasant", "building": "yes", "building:levels": "4", "contact:email": "sales@wcsdigital.com", "contact:fax": "+44 20 7713 0604", "contact:phone": "+44 20 7278 0950", "contact:website": "http://wcsdigital.com/", "name": "WCS Digital Prints", "service:copy": "yes", "service:print": "yes", "shop": "copyshop", "start_date": "1985"}}, {"type": "way", "id": 146418633, "center": {"lat": 51.5253045, "lon": -0.1107043}, "nodes": [1596927833, 1596927827, 4384563691, 1596927825, 1596927831, 1596927851, 1596927833], "tags": {"amenity": "cafe", "building": "yes", "building:levels": "1", "check_date": "2025-07-15", "indoor_seating": "yes", "name": "Cafe Maya", "outdoor_seating": "yes", "source": "Bing;photographic_survey"}}, {"type": "way", "id": 146418635, "center": {"lat": 51.525386, "lon": -0.1106205}, "nodes": [1596927855, 1596927853, 1596927856, 1596927857, 1596927855], "tags": {"building": "yes", "building:levels": "1", "shop": "bicycle", "source": "photographic_survey"}}, {"type": "way", "id": 147734603, "center": {"lat": 51.5250629, "lon": -0.1102766}, "nodes": [6230644492, 1609307443, 1609307448, 581005282, 581005281, 1149459118, 6230644492], "tags": {"amenity": "bar", "building": "yes", "building:levels": "4", "source": "Bing;photographic_survey"}}, {"type": "way", "id": 147734606, "center": {"lat": 51.5250218, "lon": -0.1102984}, "nodes": [1609307443, 1149459491, 581005276, 6230644493, 1149459343, 1609307448, 1609307443], "tags": {"addr:city": "London", "addr:housenumber": "2", "addr:postcode": "EC1R 4PX", "addr:street": "Exmouth Market", "addr:suburb": "Islington", "amenity": "pub", "building": "yes", "building:levels": "4", "fhrs:id": "1665703", "food": "yes", "indoor_seating": "yes", "name": "The Clerkenwell Tavern", "opening_hours": "Mo-Tu 12:00-23:00; We 12:00-24:00; Th-Sa 12:00-01:00; Su 12:00-23:00", "outdoor_seating": "yes", "phone": "+44 20 8161 0439", "source": "Bing;photographic_survey", "source:addr": "FHRS Open Data", "website": "https://theclerkenwelltavern.co.uk/", "wheelchair": "no"}}, {"type": "way", "id": 147734612, "center": {"lat": 51.5251779, "lon": -0.1101029}, "nodes": [1609307446, 1609307450, 1609307451, 581005287, 581005280, 1609307446], "tags": {"addr:city": "London", "addr:housenumber": "8-10", "addr:postcode": "EC1R 4QA", "addr:street": "Exmouth Market", "addr:suburb": "Islington", "amenity": "restaurant", "cuisine": "mexican", "fhrs:id": "1408999", "indoor_seating": "yes", "level": "0", "name": "Taqueria", "outdoor_seating": "yes", "source:addr": "FHRS Open Data", "website": "https://taqueria.co.uk/exmouth/", "wheelchair": "yes"}}, {"type": "way", "id": 147734618, "center": {"lat": 51.5251104, "lon": -0.1102296}, "nodes": [1609307447, 1609307449, 581005282, 581005281, 1609307447], "tags": {"amenity": "restaurant", "check_date": "2025-07-21", "indoor_seating": "yes", "level": "0", "name": "Anilo's Kitchen", "outdoor_seating": "yes", "wheelchair": "no"}}, {"type": "way", "id": 155341960, "center": {"lat": 51.5239035, "lon": -0.1094996}, "nodes": [4182837647, 4182837646, 1677474897, 1139831348, 1139831548, 1139830219, 4182837647], "tags": {"addr:city": "London", "addr:housenumber": "155", "addr:postcode": "EC1R 3AD", "addr:street": "Farringdon Road", "email": "info@clerkenwell-london.com", "level": "0", "name": "Clerkenwell London", "phone": "+44 20 3826 1142", "shop": "design", "source": "survey", "website": "https://clerkenwell-london.com/"}}, {"type": "way", "id": 155341971, "center": {"lat": 51.524138, "lon": -0.1097433}, "nodes": [1677475083, 452433535, 1677475080, 1677475061, 1677475052, 1677475060, 1677475072, 1677475083], "tags": {"addr:city": "London", "addr:housenumber": "159", "addr:street": "Farringdon Road", "amenity": "pub", "building": "yes", "building:levels": "3", "check_date": "2026-04-07", "dog": "yes", "food": "yes", "indoor_seating": "yes", "name": "The Eagle", "outdoor_seating": "yes", "payment:credit_cards": "yes", "payment:debit_cards": "yes", "phone": "+44 20 7837 1353", "reservation": "yes", "source": "Bing;survey", "source:toilets": "unknown (copied from replaced node)", "toilets": "yes", "toilets:access": "customers", "website": "https://theeaglefarringdon.co.uk/", "wheelchair": "no"}}, {"type": "way", "id": 155894278, "center": {"lat": 51.5241652, "lon": -0.1107898}, "nodes": [1682430996, 1682430998, 1139830620, 1139831329, 1682430996], "tags": {"addr:city": "London", "addr:housenumber": "1-2", "addr:postcode": "EC1R 5HP", "addr:street": "Rosebery Court", "amenity": "restaurant", "area": "yes", "cuisine": "korean", "delivery": "yes", "name": "Kalbi", "source": "photograph"}}, {"type": "way", "id": 155894326, "center": {"lat": 51.5234141, "lon": -0.1121865}, "nodes": [1139831485, 1682430970, 1682430968, 1682430964, 1682430959, 1139830368, 1682430983, 1682430971, 1139831485], "tags": {"addr:city": "London", "addr:housenumber": "49", "addr:postcode": "WC1X 0AE", "addr:street": "Mount Pleasant", "amenity": "doctors", "building": "yes", "building:levels": "4", "healthcare": "doctor", "name": "Cosmetic Courses", "ref:GB:cqc_location": "1-11803778715", "ref:GB:uprn": "5087482"}}, {"type": "way", "id": 189889500, "center": {"lat": 51.5257675, "lon": -0.1092021}, "nodes": [2004988073, 2004988079, 2004988074, 2004988076, 2004988078, 2004988080, 484618785, 2004988072, 2004988075, 2004988073], "tags": {"amenity": "marketplace", "name": "Exmouth Market", "source": "Local knowledge", "wikidata": "Q5420461", "wikimedia_commons": "Category:Exmouth Market", "wikipedia": "en:Exmouth Market"}}, {"type": "way", "id": 203229413, "center": {"lat": 51.5227141, "lon": -0.1122547}, "nodes": [2132105587, 5902427794, 5902427795, 5902427796, 5902427763, 877245089, 5902427762, 2132105589, 5920889787, 584479704, 1139830176, 1139831493, 584479710, 2132105588, 5902427800, 2132105586, 5902427798, 1139831748, 1139830451, 2132105587], "tags": {"addr:city": "London", "addr:country": "GB", "addr:housenumber": "38", "addr:postcode": "EC1R 4PQ", "addr:street": "Laystall Street", "amenity": "school", "capacity": "210", "check_date": "2025-07-15", "contact:email": "admin@chrishatton.camden.sch.uk", "contact:fax": "+44 20 7278 2232", "contact:phone": "+44 20 7278 4500", "contact:website": "https://www.chrishatton.camden.sch.uk/", "isced:level": "0;1", "max_age": "11", "min_age": "3", "name": "Christopher Hatton Primary School", "operator": "London Borough of Camden", "operator:type": "government", "operator:wikidata": "Q202088", "ref:GB:uprn": "5037736", "ref:edubase": "130342", "school": "primary", "school:type": "community", "wikidata": "Q66227904"}}, {"type": "way", "id": 623417652, "center": {"lat": 51.5231298, "lon": -0.1106545}, "nodes": [5887555116, 5887555113, 5887555112, 5887555111, 5887555114, 5887555115, 5887555106, 5887555105, 5887555107, 5887555103, 5887555100, 5887555116], "tags": {"access": "private", "amenity": "parking", "parking": "surface"}}, {"type": "way", "id": 623417656, "center": {"lat": 51.5227335, "lon": -0.110683}, "nodes": [5887555096, 5887555097, 5887555128, 5887555126, 5887555125, 5887555127, 1139831751, 1139830528, 5887555129, 1139830657, 1139831648, 1139831737, 1139831960, 1139830300, 1139831324, 1139830005, 1139830776, 1139830264, 5887555096], "tags": {"access": "private", "amenity": "parking", "parking": "surface"}}, {"type": "way", "id": 625129391, "center": {"lat": 51.52318, "lon": -0.1124912}, "nodes": [631791381, 5920889801, 5902427782, 5902427773, 5920889792, 631791381], "tags": {"access": "private", "amenity": "parking", "parking": "surface", "surface": "asphalt"}}, {"type": "way", "id": 625129394, "center": {"lat": 51.5227029, "lon": -0.1125994}, "nodes": [5902427790, 5902427791, 5902427792, 5902427793, 5902427790], "tags": {"access": "customers", "amenity": "bicycle_parking", "operator": "Christopher Hatton Primary School"}}, {"type": "way", "id": 627196004, "center": {"lat": 51.5231455, "lon": -0.1123549}, "nodes": [5920889791, 631791383, 5920889793, 5920889796, 1139831222, 1139831932, 5920889794, 5902427773, 5920889791], "tags": {"access": "private", "amenity": "parking", "parking": "surface", "surface": "asphalt"}}, {"type": "way", "id": 1368149790, "center": {"lat": 51.5247575, "lon": -0.1121653}, "nodes": [12670617406, 317316886, 13843142802, 13843142804, 317316877, 317316878, 893428824, 1508429545, 317316879, 1508429555, 2191947377, 317316881, 12670617404, 12407007669, 12407007668, 12407007667, 12407007666, 12407007665, 12670617406], "tags": {"alt_name": "Mount Pleasant Mail Centre", "amenity": "post_depot", "landuse": "commercial", "name": "London Central Mail Centre", "operator": "Royal Mail", "operator:type": "private", "operator:wikidata": "Q638098", "wikidata": "Q7374422", "wikimedia_commons": "Category:Royal Mail Mount Pleasant Sorting Office", "wikipedia": "en:Mount Pleasant Mail Centre"}}]}