{"version": 0.6, "generator": "Overpass API 0.7.62.11 87bfad18", "osm3s": {"timestamp_osm_base": "2026-06-10T16:37:33Z", "copyright": "The data included in this document is from www.openstreetmap.org. The data is made available under ODbL."}, "elements": [{"type": "node", "id": 25510381, "lat": 51.4994616, "lon": -0.1139642, "tags": {"addr:city": "London", "addr:housenumber": "133-135", "addr:postcode": "SE1 7HR", "addr:street": "Westminster Bridge Road", "amenity": "pub", "check_date": "2025-08-23", "check_date:opening_hours": "2025-08-27", "contact:facebook": "CrownAndCushionLdn", "contact:twitter": "CrownCushionLdn", "email": "crownandcushionpub@gmail.com", "fhrs:authority": "Lambeth", "fhrs:id": "606768", "name": "Crown & Cushion", "opening_hours": "Mo-Sa 11:00-23:00; Su 11:00-22:30", "phone": "+44 20 7803 0573", "website": "https://www.thecrownandcushion-london.foodanddrinksites.co.uk/", "wheelchair": "no"}}, {"type": "node", "id": 264836664, "lat": 51.4982166, "lon": -0.1119946, "tags": {"amenity": "bicycle_parking", "bicycle_parking": "stands", "capacity": "6", "covered": "no", "source": "Survey CH"}}, {"type": "node", "id": 264836665, "lat": 51.4982066, "lon": -0.1123295, "tags": {"amenity": "telephone", "check_date": "2023-01-28", "note": "not BT"}}, {"type": "node", "id": 264904748, "lat": 51.499607, "lon": -0.11497, "tags": {"amenity": "car_sharing", "capacity": "1", "operator": "Streetcar", "operator:wikidata": "Q7623070", "source": "WebSite"}}, {"type": "node", "id": 264905066, "lat": 51.4995131, "lon": -0.1147771, "tags": {"amenity": "car_sharing", "capacity": "1", "operator": "Streetcar", "operator:wikidata": "Q7623070", "source": "WebSite"}}, {"type": "node", "id": 348782665, "lat": 51.4999904, "lon": -0.1143845, "tags": {"addr:city": "London", "addr:housenumber": "172", "addr:postcode": "SE1 7RW", "addr:street": "Westminster Bridge Road", "amenity": "pub", "check_date": "2026-05-08", "check_date:opening_hours": "2026-05-08", "contact:facebook": "TheWalrusBarHostel", "contact:instagram": "thewalrusbarandhostel", "email": "thewalrushostel@gmail.com", "fhrs:authority": "Lambeth", "fhrs:id": "484706", "fhrs:inspectiondate": "2013-03-22", "fhrs:rating": "5", "indoor_seating": "yes", "internet_access": "wlan", "internet_access:fee": "customers", "level": "0", "lgbtq": "welcome", "lgbtq:signed": "yes", "name": "The Walrus", "opening_hours": "Su-We 12:00-23:00; Th 12:00-24:00;Fr-Sa 12:00-24:45", "outdoor_seating": "sidewalk", "payment:american_express": "no", "payment:cards": "yes", "payment:cash": "no", "phone": "+44 7545589214", "smoking": "outside", "toilets": "yes", "toilets:wheelchair": "no", "website": "https://www.thewalrusbarandhostel.co.uk/barpage1", "wheelchair": "no"}}, {"type": "node", "id": 410623388, "lat": 51.4993748, "lon": -0.1137372, "tags": {"addr:city": "London", "addr:housenumber": "125-131", "addr:postcode": "SE1 7HJ", "addr:street": "Westminster Bridge Road", "amenity": "post_office", "brand": "Post Office", "brand:wikidata": "Q1783168", "check_date": "2026-05-08", "fixme": "Check which exact building this is.", "name": "Westminster Bridge Road Post Office", "opening_hours": "Mo-Fr 10:00-17:30", "ref:pol_id": "23930", "website": "https://www.postoffice.co.uk/branch-finder/2350076/westminster-bridge-road", "wheelchair": "yes"}}, {"type": "node", "id": 506326945, "lat": 51.4993973, "lon": -0.113791, "tags": {"addr:city": "London", "addr:housenumber": "131", "addr:postcode": "SE1 7HR", "addr:street": "Westminster Bridge Road", "brand": "Spar", "brand:wikidata": "Q610492", "brand:wikipedia": "en:Spar (retailer)", "fhrs:authority": "Lambeth", "fhrs:id": "484705", "fhrs:inspectiondate": "2013-10-31", "fhrs:rating": "4", "name": "Spar", "name:fa": "\u0627\u0633\u067e\u0627\u0631", "shop": "supermarket", "wheelchair": "yes"}}, {"type": "node", "id": 506326946, "lat": 51.4994862, "lon": -0.1138781, "tags": {"amenity": "post_box", "brand": "Royal Mail", "brand:wikidata": "Q638098", "brand:wikipedia": "en:Royal Mail", "collection_times": "Mo-Fr 18:30; Sa 13:00", "drive_through": "no", "operator": "Royal Mail", "operator:wikidata": "Q638098", "post_box:apertures": "2", "post_box:design": "type_c", "post_box:type": "pillar", "ref": "SE1 27;SE1 127", "royal_cypher": "EIIR", "royal_cypher:wikidata": "Q33102113", "source": "survey"}}, {"type": "node", "id": 566152754, "lat": 51.500366, "lon": -0.1138525, "tags": {"addr:city": "London", "addr:housenumber": "133A", "addr:postcode": "SE1 7AE", "addr:street": "Lower Marsh", "alt_name:en": "Scooter Caffe", "amenity": "bar", "contact:facebook": "https://www.facebook.com/scootercaffe/", "contact:phone": "+44 20 7620 1421", "contact:website": "https://scootercaffe.com/", "fhrs:id": "484304", "internet_access": "wlan", "internet_access:fee": "customers", "name": "Scooter Caff\u00e9", "name:en": "Scooter Caffe", "opening_hours:covid19": "closed", "outdoor_seating": "yes", "source:addr": "FHRS Open Data"}}, {"type": "node", "id": 581057258, "lat": 51.499562, "lon": -0.1141846, "tags": {"addr:city": "London", "addr:housenumber": "141", "addr:postcode": "SE1 7HR", "addr:street": "Westminster Bridge Road", "amenity": "cafe", "check_date": "2025-08-16", "contact:instagram": "sistabaristacafe", "fhrs:id": "858052", "name": "Sista Barista", "old_name": "Zeitgeist", "source:addr": "FHRS Open Data", "wheelchair": "no"}}, {"type": "node", "id": 587754532, "lat": 51.5013276, "lon": -0.111892, "tags": {"addr:city": "London", "addr:housenumber": "98-99", "addr:postcode": "SE1 7AB", "addr:street": "Lower Marsh", "amenity": "pharmacy", "brand": "Boots", "brand:wikidata": "Q6123139", "brand:wikipedia": "en:Boots (company)", "check_date": "2025-09-04", "dispensing": "yes", "drive_through": "no", "fhrs:id": "981596", "healthcare": "pharmacy", "name": "Boots", "opening_hours": "Mo-Fr 08:30-18:30; Sa 09:30-16:00", "payment:american_express": "yes", "source:addr": "FHRS Open Data", "website": "https://www.boots.com/stores/832-london-lambeth-se1-7ab", "wheelchair": "yes"}}, {"type": "node", "id": 587754776, "lat": 51.500924, "lon": -0.1123721, "tags": {"addr:city": "London", "addr:housenumber": "27", "addr:postcode": "SE1 7RG", "addr:street": "Lower Marsh", "check_date": "2023-02-23", "contact:twitter": "https://twitter.com/greensmithsfood", "fhrs:id": "484290", "name": "Greensmiths", "payment:american_express": "yes", "phone": "+44 20 7921 2970", "shop": "supermarket", "source:addr": "FHRS Open Data", "website": "http://greensmithsfood.co.uk/", "wheelchair": "limited"}}, {"type": "node", "id": 587754778, "lat": 51.5010241, "lon": -0.1127212, "tags": {"addr:city": "London", "addr:housenumber": "93-94", "addr:postcode": "SE1 7AB", "addr:street": "Lower Marsh", "brand": "Vodafone", "brand:wikidata": "Q122141", "name": "Vodafone", "shop": "mobile_phone", "source:addr": "FHRS Open Data"}}, {"type": "node", "id": 587754846, "lat": 51.5009083, "lon": -0.1128244, "tags": {"addr:city": "London", "addr:housenumber": "112-113", "addr:postcode": "SE1 7AE", "addr:street": "Lower Marsh", "brand": "Iceland", "brand:wikidata": "Q721810", "brand:wikipedia": "en:Iceland (supermarket)", "contact:website": "https://www.iceland.co.uk/store-finder/store?StoreID=31&StoreName=LOWER%20MARSH", "fhrs:id": "484300", "name": "Iceland", "opening_hours": "Mo-Sa 08:00-20:00; Su 11:00-17:00", "shop": "frozen_food", "source:addr": "FHRS Open Data", "wheelchair": "yes"}}, {"type": "node", "id": 587757114, "lat": 51.5001943, "lon": -0.1136971, "tags": {"addr:city": "London", "addr:housenumber": "4", "addr:postcode": "SE1 7RJ", "addr:street": "Lower Marsh", "brand": "Ryman", "brand:wikidata": "Q7385188", "brand:wikipedia": "en:Ryman", "check_date": "2024-08-20", "check_date:opening_hours": "2024-08-20", "name": "Ryman", "opening_hours": "Mo-Sa 09:00-18:00; Su 11:00-17:00", "phone": "+44 20 3907 3152", "shop": "stationery", "website": "https://www.ryman.co.uk/storefinder/ryman-waterloo/", "wheelchair": "limited"}}, {"type": "node", "id": 587757716, "lat": 51.4995269, "lon": -0.1140982, "tags": {"amenity": "restaurant", "name": "Ha-Noi"}}, {"type": "node", "id": 587758195, "lat": 51.4994945, "lon": -0.1140256, "tags": {"name": "The Cut", "shop": "hairdresser", "wheelchair": "yes"}}, {"type": "node", "id": 587759060, "lat": 51.4989934, "lon": -0.1129287, "tags": {"addr:city": "London", "addr:housenumber": "97-99", "addr:postcode": "SE1 7HR", "addr:street": "Westminster Bridge Road", "brand": "Costcutter", "brand:wikidata": "Q5175072", "brand:wikipedia": "en:Costcutter", "check_date": "2017-06-28", "contact:website": "https://store-locator.costcutter.co.uk/costcutter-ce7e347330b2", "fhrs:authority": "Lambeth", "fhrs:id": "484702", "fhrs:rating": "2", "name": "Costcutter", "opening_hours": "24/7", "shop": "convenience", "wheelchair": "no", "wheelchair:description": "need to replace ramp"}}, {"type": "node", "id": 587759520, "lat": 51.4988211, "lon": -0.1127235, "tags": {"addr:city": "London", "addr:housenumber": "89", "addr:postcode": "SE1 7HR", "addr:street": "Westminster Bridge Road", "amenity": "restaurant", "check_date": "2025-10-13", "cuisine": "italian", "fhrs:authority": "Lambeth", "fhrs:id": "484701", "fhrs:inspectiondate": "2013-09-19", "fhrs:rating": "4", "name": "Cotto", "wheelchair": "no"}}, {"type": "node", "id": 587759630, "lat": 51.4988864, "lon": -0.1127885, "tags": {"amenity": "dojo", "check_date": "2025-10-13", "old_name": "NatWest", "wheelchair": "no"}}, {"type": "node", "id": 587760188, "lat": 51.4982379, "lon": -0.1124955, "tags": {"addr:city": "London", "addr:housenumber": "2", "addr:postcode": "SE1 7BL", "addr:street": "Kennington Road", "air_conditioning": "yes", "amenity": "pub", "brand": "Fuller's", "brand:wikidata": "Q5253950", "brewery": "various", "check_date": "2026-05-18", "contact:email": "hercules.office@fullers.co.uk", "contact:facebook": "theherculesse1", "contact:instagram": "theherculesse1", "dog": "yes", "food": "yes", "internet_access": "wlan", "internet_access:fee": "no", "microbrewery": "no", "name": "The Hercules", "opening_hours": "Mo-Th 09:00-23:30; Fr-Sa 09:00-24:00; Su 09:00-23:00", "operator": "Fullers", "outdoor_seating": "yes", "phone": "+44 1909 303688", "smoking": "outside", "toilets": "yes", "website": "https://www.thehercules.co.uk/"}}, {"type": "node", "id": 587763905, "lat": 51.4984807, "lon": -0.1127346, "tags": {"check_date": "2026-05-08", "name": "The Giftree", "shop": "gift"}}, {"type": "node", "id": 587764588, "lat": 51.499436, "lon": -0.1138906, "tags": {"amenity": "restaurant", "name": "Duke Thai Restaurant"}}, {"type": "node", "id": 602195831, "lat": 51.5013045, "lon": -0.1115508, "tags": {"amenity": "bicycle_parking", "bicycle_parking": "stands", "capacity": "10", "covered": "no"}}, {"type": "node", "id": 858321427, "lat": 51.4991713, "lon": -0.1119838, "tags": {"amenity": "bicycle_rental", "bicycle_rental": "docking_station", "brand": "Santander Cycles", "brand:wikidata": "Q807961", "capacity": "20", "historic:ref": "CH18029", "local": "Waterloo", "name": "Lambeth North Station", "network": "tfl_cycle_hire", "official_name": "Lambeth North Station, Waterloo", "official_ref": "284", "operator": "Serco", "operator:type": "private", "operator:wikidata": "Q499104"}}, {"type": "node", "id": 863838465, "lat": 51.5003526, "lon": -0.1135184, "tags": {"addr:housenumber": "13", "addr:street": "Lower Marsh", "name": "shop ec", "shop": "e-cigarette"}}, {"type": "node", "id": 863838469, "lat": 51.5013932, "lon": -0.1117305, "tags": {"addr:city": "London", "addr:housenumber": "95", "addr:postcode": "SE1 7AB", "addr:street": "Lower Marsh", "check_date": "2025-09-04", "contact:website": "https://www.toolshopgroup.com/ourstores/waterloo/", "name": "Waterloo Home & Hardware", "opening_hours": "Mo-Sa 09:00-18:00", "payment:american_express": "yes", "shop": "doityourself"}}, {"type": "node", "id": 863838493, "lat": 51.5003914, "lon": -0.1138124, "tags": {"addr:housenumber": "131", "addr:street": "Lower Marsh", "name": "London Skin Wellness House", "shop": "beauty"}}, {"type": "node", "id": 863838496, "lat": 51.5007452, "lon": -0.1126786, "tags": {"addr:housenumber": "24", "addr:street": "Lower Marsh", "amenity": "restaurant", "name": "Inshoku", "wheelchair": "no"}}, {"type": "node", "id": 863838518, "lat": 51.5005483, "lon": -0.1131646, "tags": {"addr:city": "London", "addr:housenumber": "18", "addr:postcode": "SE1 7RJ", "addr:street": "Lower Marsh", "amenity": "restaurant", "cuisine": "spanish", "name": "Chango"}}, {"type": "node", "id": 863838548, "lat": 51.5006197, "lon": -0.1130387, "tags": {"addr:city": "London", "addr:floor": "0", "addr:housenumber": "20", "addr:postcode": "SE1 7RJ", "addr:street": "Lower Marsh", "amenity": "cafe", "cuisine": "coffee_shop;sandwich;pastry", "diet:vegetarian": "yes", "fhrs:id": "1539883", "indoor_seating": "yes", "name": "Little Bread Pedlar", "opening_hours": "Mo-Fr 08:00-15:00, Sa-Su 09:00-16:00", "outdoor_seating": "yes", "phone": "+44 7478 734122", "website": "https://www.lbpedlar.com"}}, {"type": "node", "id": 863838579, "lat": 51.5002908, "lon": -0.1139615, "tags": {"addr:housenumber": "130", "addr:street": "Lower Marsh", "amenity": "bar", "check_date": "2025-09-04", "name": "The Glitch", "wheelchair": "no"}}, {"type": "node", "id": 863838607, "lat": 51.5009821, "lon": -0.1126861, "tags": {"addr:housenumber": "110", "addr:street": "Lower Marsh", "check_date": "2025-09-04", "name": "Le Premier Shoe Care", "shop": "shoe_repair"}}, {"type": "node", "id": 863838614, "lat": 51.5007214, "lon": -0.1127447, "tags": {"addr:housenumber": "23", "addr:street": "Lower Marsh", "amenity": "fast_food"}}, {"type": "node", "id": 863838700, "lat": 51.5004992, "lon": -0.113633, "tags": {"addr:city": "London", "addr:housenumber": "127-130", "addr:postcode": "SE1 7AE", "addr:street": "Lower Marsh", "shop": "vacant", "source:addr": "FHRS Open Data"}}, {"type": "node", "id": 930444596, "lat": 51.500192, "lon": -0.1138537, "tags": {"amenity": "bicycle_rental", "bicycle_rental": "docking_station", "brand": "Santander Cycles", "brand:wikidata": "Q807961", "capacity": "17", "historic:ref": "CH18028", "local": "Waterloo", "name": "Lower Marsh", "network": "tfl_cycle_hire", "official_name": "Lower Marsh, Waterloo", "official_ref": "347", "operator": "Serco", "operator:type": "private", "operator:wikidata": "Q499104"}}, {"type": "node", "id": 1214201146, "lat": 51.4982475, "lon": -0.1118157, "tags": {"amenity": "cafe", "name": "The Hub"}}, {"type": "node", "id": 1223820165, "lat": 51.4990898, "lon": -0.1124853, "tags": {"addr:housenumber": "118-120", "addr:street": "Westminster Bridge Road", "amenity": "cafe", "brand": "Costa", "brand:wikidata": "Q608845", "brand:wikipedia": "en:Costa Coffee", "check_date": "2025-09-04", "cuisine": "coffee_shop", "name": "Costa", "outdoor_seating": "yes", "payment:american_express": "yes", "takeaway": "yes", "wheelchair": "yes", "wheelchair:description": "toilet corridor is narrow' especially for electric wheelchairs. accessible toilet is a good size."}}, {"type": "node", "id": 1309411269, "lat": 51.5012115, "lon": -0.1117689, "tags": {"amenity": "bicycle_parking", "bicycle_parking": "stands", "capacity": "10", "covered": "no"}}, {"type": "node", "id": 2249002728, "lat": 51.4989651, "lon": -0.1128085, "tags": {"amenity": "bicycle_parking", "bicycle_parking": "stands", "capacity": "4", "covered": "no", "source": "Survey CH"}}, {"type": "node", "id": 2249004774, "lat": 51.4987995, "lon": -0.1126428, "tags": {"amenity": "bicycle_parking", "bicycle_parking": "stands", "capacity": "6", "covered": "no", "source": "Survey CH"}}, {"type": "node", "id": 2611020395, "lat": 51.4990374, "lon": -0.1130094, "tags": {"addr:city": "London", "addr:housenumber": "101", "addr:postcode": "SE1 7HR", "addr:street": "Westminster Bridge Road", "amenity": "fast_food", "check_date": "2025-07-23", "cuisine": "chicken", "fhrs:authority": "Lambeth", "fhrs:id": "484703", "fhrs:inspectiondate": "2014-02-28", "fhrs:rating": "1", "name": "Pizza & Chicken Palace", "wheelchair": "yes"}}, {"type": "node", "id": 3217450161, "lat": 51.4987413, "lon": -0.1115481, "tags": {"amenity": "school", "name": "Oasis Academy", "wheelchair": "yes"}}, {"type": "node", "id": 3217468262, "lat": 51.499671, "lon": -0.1137184, "tags": {"name": "Topwind", "shop": "gift", "wheelchair": "no"}}, {"type": "node", "id": 3217478768, "lat": 51.4997069, "lon": -0.1137849, "tags": {"amenity": "cafe", "name": "Four Corners", "wheelchair": "no"}}, {"type": "node", "id": 3249860773, "lat": 51.5010275, "lon": -0.1142036, "tags": {"addr:city": "London", "addr:postcode": "SE1 7NN", "addr:street": "Leake Street", "amenity": "nightclub", "contact:website": "https://www.thevaults.london", "fhrs:id": "816363", "name": "The Vaults", "source:addr": "FHRS Open Data"}}, {"type": "node", "id": 3714081148, "lat": 51.5010963, "lon": -0.1119857, "tags": {"addr:city": "London", "addr:housenumber": "33", "addr:street": "Lower Marsh", "check_date": "2026-05-29", "name": "Opticalise", "phone": "+44 20 7633 0680", "shop": "optician"}}, {"type": "node", "id": 3714081151, "lat": 51.5009585, "lon": -0.1123009, "tags": {"addr:city": "London", "addr:housenumber": "28", "addr:postcode": "SE1 7RG", "addr:street": "Lower Marsh", "check_date": "2023-04-03", "email": "sirensilver@btconnect.com", "name": "Twice The Siren", "opening_hours": "Tu-Sa 10:30-17:30", "phone": "+44 20 7261 0025", "shop": "jewelry", "website": "https://www.twicethesiren.co.uk/"}}, {"type": "node", "id": 3714081157, "lat": 51.501014, "lon": -0.1121741, "tags": {"addr:city": "London", "addr:floor": "0", "addr:housenumber": "30", "addr:postcode": "SE1 7RG", "addr:street": "Lower Marsh", "amenity": "restaurant", "fhrs:id": "858063", "indoor_seating": "yes", "name": "Po Cha \ud3ec\uc7a5\ub9c8\ucc28", "name:en": "Po Cha", "name:ko": "\ud3ec\uc7a5\ub9c8\ucc28", "outdoor_seating": "no", "phone": "+44 7379 349552", "source:addr": "FHRS Open Data", "wheelchair": "no"}}, {"type": "node", "id": 3714081159, "lat": 51.5007581, "lon": -0.1131277, "tags": {"addr:city": "London", "addr:housenumber": "119-120", "addr:postcode": "SE1 7AE", "addr:street": "Lower Marsh", "shop": "vacant"}}, {"type": "node", "id": 3714081160, "lat": 51.501038, "lon": -0.1121175, "tags": {"addr:city": "London", "addr:housenumber": "31", "addr:postcode": "SE1 7RG", "addr:street": "Lower Marsh", "name": "4 Convenience", "shop": "convenience"}}, {"type": "node", "id": 3714081162, "lat": 51.5009527, "lon": -0.1127469, "tags": {"amenity": "restaurant", "check_date": "2026-05-30", "cuisine": "ramen", "name": "Fukuoka Ramen Bar"}}, {"type": "node", "id": 4270689596, "lat": 51.4985231, "lon": -0.1126984, "tags": {"addr:city": "London", "addr:housenumber": "2", "addr:postcode": "SE1 7DP", "addr:street": "Hercules Road", "amenity": "cafe", "check_date": "2026-05-08", "check_date:opening_hours": "2026-05-08", "contact:facebook": "https://www.facebook.com/people/Beeyond-Cafe/61578602007798/", "contact:instagram": "beeyondcafe", "email": "info@beeyondcafe.com", "name": "Beeyond", "opening_hours": "Mo-Su 07:30-18:00", "phone": "+447594705020", "website": "https://beeyondcafe.com/"}}, {"type": "node", "id": 4270698824, "lat": 51.4996545, "lon": -0.1119133, "tags": {"addr:city": "London", "addr:housenumber": "100", "addr:postcode": "SE1 7FN", "addr:street": "Baylis Road", "brand": "Tesco Express", "brand:wikidata": "Q98456772", "check_date": "2025-05-12", "contact:website": "https://www.tesco.com/store-locator/waterloo/100-baylis-rd", "fhrs:id": "710633", "name": "Tesco Express", "name:fa": "\u062a\u0633\u06a9\u0648 \u0627\u06a9\u0633\u067e\u0631\u0633", "opening_hours": "Mo-Su 07:00-23:00", "shop": "convenience"}}, {"type": "node", "id": 4270698829, "lat": 51.4996177, "lon": -0.1118991, "tags": {"amenity": "bicycle_parking", "bicycle_parking": "stands", "capacity": "6", "covered": "no"}}, {"type": "node", "id": 4270698834, "lat": 51.5001453, "lon": -0.1113795, "tags": {"amenity": "grit_bin"}}, {"type": "node", "id": 4341732495, "lat": 51.5005665, "lon": -0.1106442, "tags": {"amenity": "telephone", "booth": "KXPlus", "covered": "booth", "operator": "BT", "operator:wikidata": "Q593786"}}, {"type": "node", "id": 4341801181, "lat": 51.5002886, "lon": -0.1108388, "tags": {"addr:housenumber": "57", "addr:street": "Baylis Road", "amenity": "restaurant", "check_date": "2025-09-04", "cuisine": "korean", "name": "Go Po Cha", "phone": "+44 20 7018 5582"}}, {"type": "node", "id": 4341801183, "lat": 51.5004177, "lon": -0.110758, "tags": {"addr:city": "London", "addr:housenumber": "51", "addr:postcode": "SE1 7AU", "addr:street": "Baylis Road", "check_date": "2025-09-04", "fhrs:id": "941011", "name": "Waterloo Food & Wine", "shop": "convenience", "source:addr": "FHRS Open Data"}}, {"type": "node", "id": 4341801185, "lat": 51.5003701, "lon": -0.1107859, "tags": {"addr:housenumber": "55", "addr:street": "Baylis Road", "amenity": "cafe", "check_date": "2025-09-04", "name": "Tea Talk"}}, {"type": "node", "id": 4341801186, "lat": 51.5001327, "lon": -0.1109905, "tags": {"amenity": "grit_bin"}}, {"type": "node", "id": 4341804015, "lat": 51.4989933, "lon": -0.1122061, "tags": {"amenity": "bicycle_parking", "bicycle_parking": "stands", "capacity": "6", "check_date:capacity": "2020-12-13", "covered": "no"}}, {"type": "node", "id": 4341804016, "lat": 51.4992394, "lon": -0.1117457, "tags": {"amenity": "grit_bin"}}, {"type": "node", "id": 4341804017, "lat": 51.4992878, "lon": -0.1117001, "tags": {"amenity": "telephone", "check_date": "2020-12-13", "colour": "black", "note": "not BT"}}, {"type": "node", "id": 5184548475, "lat": 51.4998598, "lon": -0.1141252, "tags": {"addr:city": "London", "addr:housenumber": "1", "addr:postcode": "SE1 7NT", "addr:street": "Lower Marsh", "brand": "Co-op Food", "brand:wikidata": "Q3277439", "brand:wikipedia": "en:Co-op Food", "check_date": "2025-09-03", "check_date:opening_hours": "2024-07-15", "fhrs:id": "858048", "name": "Co-op Food", "name:ru": "\u041a\u043e-\u043e\u043f \u0421\u0443\u043f\u0435\u0440\u043c\u0430\u0440\u043a\u0435\u0442", "opening_hours": "Mo-Su 07:00-23:00", "operator": "The Co-operative Group", "operator:wikidata": "Q117202", "payment:american_express": "yes", "payment:cards": "yes", "payment:cash": "yes", "payment:qr_code": "no", "shop": "convenience", "website": "https://www.coop.co.uk/store-finder/SE1-7NT/1-lower-marsh"}}, {"type": "node", "id": 5401978065, "lat": 51.4995341, "lon": -0.114122, "tags": {"addr:city": "London", "addr:housenumber": "139", "addr:postcode": "SE1 7HR", "addr:street": "Westminster Bridge Road", "amenity": "cafe", "check_date": "2025-08-16", "fhrs:id": "955682", "name": "Travel Caf\u00e9", "payment:american_express": "yes", "source:addr": "FHRS Open Data", "website": "https://www.travel.cafe/cafe"}}, {"type": "node", "id": 5691860840, "lat": 51.5006297, "lon": -0.1154499, "tags": {"amenity": "bicycle_parking", "bicycle_parking": "stands", "capacity": "18", "covered": "yes"}}, {"type": "node", "id": 5691860842, "lat": 51.5005965, "lon": -0.1153748, "tags": {"amenity": "bicycle_parking", "bicycle_parking": "stands", "capacity": "10", "covered": "yes"}}, {"type": "node", "id": 5881492186, "lat": 51.49914, "lon": -0.1132517, "tags": {"addr:city": "London", "addr:housenumber": "111", "addr:postcode": "SE1 7HR", "addr:street": "Westminster Bridge Road", "amenity": "fast_food", "brand": "Pret A Manger", "brand:wikidata": "Q2109109", "brand:wikipedia": "en:Pret a Manger", "check_date": "2025-07-23", "cuisine": "sandwich", "fhrs:id": "981530", "name": "Pret A Manger", "short_name": "Pret", "source:addr": "FHRS Open Data", "takeaway": "yes"}}, {"type": "node", "id": 5943462687, "lat": 51.4982585, "lon": -0.1135094, "tags": {"amenity": "restaurant", "check_date": "2025-10-13", "name": "Florentine"}}, {"type": "node", "id": 5982044086, "lat": 51.4990994, "lon": -0.1131572, "tags": {"addr:city": "London", "addr:housenumber": "107", "addr:postcode": "SE1 7HR", "addr:street": "Westminster Bridge Road", "brand": "Sainsbury's Local", "brand:wikidata": "Q13218434", "check_date": "2026-05-08", "fhrs:id": "988828", "level": "0", "name": "Sainsbury's Local", "opening_hours": "07:00-23:00", "shop": "convenience", "source:addr": "FHRS Open Data", "website": "https://stores.sainsburys.co.uk/6213/lambeth-north-station-local"}}, {"type": "node", "id": 6554185524, "lat": 51.4981772, "lon": -0.1123184, "tags": {"amenity": "bicycle_parking", "bicycle_parking": "stands", "capacity": "6", "covered": "no"}}, {"type": "node", "id": 6821359585, "lat": 51.4994185, "lon": -0.1138443, "tags": {"addr:housenumber": "125-131", "addr:street": "Westminster Bridge Road", "amenity": "cafe", "check_date": "2023-07-16", "cuisine": "dessert", "diet:vegan": "yes", "diet:vegetarian": "yes", "indoor_seating": "yes", "name": "ila Desserts Caf\u00e9", "opening_hours": "Mo-Sa 07:00-21:00; Su 08:00-21:00", "outdoor_seating": "no", "payment:credit_cards": "yes", "payment:debit_cards": "yes", "takeaway": "yes"}}, {"type": "node", "id": 7650879410, "lat": 51.5004001, "lon": -0.1108676, "tags": {"amenity": "bicycle_parking", "bicycle_parking": "stands", "capacity": "8", "covered": "no"}}, {"type": "node", "id": 7761299287, "lat": 51.4987263, "lon": -0.1115879, "tags": {"amenity": "bicycle_parking", "bicycle_parking": "lockers", "capacity": "6", "covered": "yes", "fee": "yes"}}, {"type": "node", "id": 7761310608, "lat": 51.4984621, "lon": -0.1127052, "tags": {"access": "yes", "amenity": "bicycle_parking", "bicycle_parking": "stands", "capacity": "4", "covered": "no"}}, {"type": "node", "id": 7916138784, "lat": 51.501358, "lon": -0.1114545, "tags": {"amenity": "waste_basket", "waste": "trash"}}, {"type": "node", "id": 7987884098, "lat": 51.5014071, "lon": -0.1112257, "tags": {"addr:city": "London", "addr:housenumber": "42-43", "addr:postcode": "SE1 7RG", "addr:street": "Lower Marsh", "air_conditioning": "yes", "amenity": "cafe", "bar": "no", "check_date": "2025-09-04", "cuisine": "breakfast;coffee_shop;lunch;cake", "diet:vegan": "yes", "diet:vegetarian": "yes", "fhrs:id": "1028889", "indoor_seating": "yes", "internet_access": "wlan", "internet_access:fee": "customers", "name": "Balance", "opening_hours": "Mo-Su 08:00-16:00", "outdoor_seating": "yes", "payment:mastercard": "yes", "payment:visa": "yes", "phone": "+44 20 3903 6983", "source:addr": "FHRS Open Data", "website": "https://www.balancekitchen.co.uk/", "wheelchair": "limited"}}, {"type": "node", "id": 9043471876, "lat": 51.5011905, "lon": -0.1118294, "tags": {"amenity": "waste_basket"}}, {"type": "node", "id": 9749306462, "lat": 51.500965, "lon": -0.1124154, "tags": {"amenity": "bicycle_parking", "bicycle_parking": "stands", "capacity": "6", "covered": "no"}}, {"type": "node", "id": 9880479589, "lat": 51.5003103, "lon": -0.1135776, "tags": {"addr:city": "London", "addr:housenumber": "12", "addr:postcode": "SE1 7RJ", "addr:street": "Lower Marsh", "amenity": "cafe", "cuisine": "smoothie", "fhrs:id": "1624134", "name": "V&V Juice Bar", "source:addr": "FHRS Open Data"}}, {"type": "node", "id": 9962657100, "lat": 51.5010769, "lon": -0.1121382, "tags": {"amenity": "bicycle_parking", "bicycle_parking": "stands", "capacity": "4", "covered": "no"}}, {"type": "node", "id": 9962657104, "lat": 51.5008831, "lon": -0.112586, "tags": {"amenity": "bicycle_parking", "bicycle_parking": "stands", "capacity": "4", "covered": "no"}}, {"type": "node", "id": 9962657105, "lat": 51.5007727, "lon": -0.112815, "tags": {"amenity": "bicycle_parking", "bicycle_parking": "stands", "capacity": "8", "covered": "no"}}, {"type": "node", "id": 9979784663, "lat": 51.4998811, "lon": -0.1103573, "tags": {"amenity": "childcare", "branch": "Waterloo", "name": "Co-op Childcare"}}, {"type": "node", "id": 10073542847, "lat": 51.5009425, "lon": -0.1105451, "tags": {"amenity": "bicycle_parking", "bicycle_parking": "stands", "capacity": "4", "covered": "no", "fee": "no"}}, {"type": "node", "id": 10073548797, "lat": 51.500168, "lon": -0.1110198, "tags": {"amenity": "bicycle_parking", "bicycle_parking": "stands", "capacity": "4", "covered": "no", "fee": "no"}}, {"type": "node", "id": 10073570126, "lat": 51.499164, "lon": -0.1123125, "tags": {"amenity": "bicycle_parking", "bicycle_parking": "stands", "capacity": "2", "covered": "no", "fee": "no"}}, {"type": "node", "id": 10073570127, "lat": 51.4993078, "lon": -0.1119404, "tags": {"amenity": "bicycle_parking", "bicycle_parking": "stands", "capacity": "4", "covered": "no", "fee": "no"}}, {"type": "node", "id": 10275598120, "lat": 51.5001159, "lon": -0.1141124, "tags": {"amenity": "bicycle_parking", "bicycle_parking": "stands", "capacity": "4", "covered": "no", "ref:GB:tflcid": "RWG049685"}}, {"type": "node", "id": 10275598121, "lat": 51.5000673, "lon": -0.1141873, "tags": {"amenity": "bicycle_parking", "bicycle_parking": "stands", "capacity": "4", "covered": "no", "ref:GB:tflcid": "RWG049686"}}, {"type": "node", "id": 10275598124, "lat": 51.5003686, "lon": -0.1135515, "tags": {"access": "yes", "amenity": "bicycle_parking", "bicycle_parking": "stands", "capacity": "6", "covered": "no", "fee": "no", "operator:type": "public", "ref:GB:tflcid": "RWG049684"}}, {"type": "node", "id": 10275598125, "lat": 51.4991393, "lon": -0.1131026, "tags": {"amenity": "bicycle_parking", "bicycle_parking": "stands", "capacity": "4", "covered": "no", "ref:GB:tflcid": "RWG049850"}}, {"type": "node", "id": 10275598126, "lat": 51.498588, "lon": -0.1130811, "tags": {"amenity": "bicycle_parking", "bicycle_parking": "stands", "capacity": "4", "ref:GB:tflcid": "RWG049745"}}, {"type": "node", "id": 10275598127, "lat": 51.4985654, "lon": -0.1130194, "tags": {"amenity": "bicycle_parking", "bicycle_parking": "stands", "capacity": "4", "ref:GB:tflcid": "RWG049744"}}, {"type": "node", "id": 10773298726, "lat": 51.4995168, "lon": -0.1144554, "tags": {"check_date": "2023-03-30", "name": "Set Scooters", "phone": "+44 20 7401 9991", "shop": "motorcycle_repair"}}, {"type": "node", "id": 10798047248, "lat": 51.5011974, "lon": -0.1122318, "tags": {"addr:city": "London", "addr:housenumber": "102", "addr:postcode": "SE1 7AB", "addr:street": "Lower Marsh", "amenity": "cafe", "check_date": "2025-09-04", "cuisine": "coffee_shop", "name": "Calico Coffee", "website": "https://www.dansbarbershop.london/"}}, {"type": "node", "id": 10798047254, "lat": 51.5010667, "lon": -0.1120549, "tags": {"addr:city": "London", "addr:housenumber": "32", "addr:postcode": "SE1 7RG", "addr:street": "Lower Marsh", "amenity": "restaurant", "check_date": "2026-05-29", "cuisine": "sushi", "name": "Love Sushi"}}, {"type": "node", "id": 10798047258, "lat": 51.5008733, "lon": -0.1123532, "tags": {"addr:city": "London", "addr:housenumber": "27;27A", "addr:postcode": "SE1 7RG", "addr:street": "Lower Marsh", "entrance": "shop", "name": "Turner & George", "ref": "27A", "shop": "butcher"}}, {"type": "node", "id": 10798047269, "lat": 51.5012949, "lon": -0.1119819, "tags": {"addr:city": "London", "addr:housenumber": "100", "addr:postcode": "SE1 7AB", "addr:street": "Lower Marsh", "alt_name": "T4 Tea House", "amenity": "cafe", "brand": "T4", "brand:wikidata": "Q112123535", "check_date": "2025-09-04", "cuisine": "bubble_tea", "fhrs:id": "1575892", "name": "T4 Tea For U", "payment:american_express": "yes", "source:addr": "FHRS Open Data", "takeaway": "yes"}}, {"type": "node", "id": 10798047270, "lat": 51.501456, "lon": -0.1115352, "tags": {"addr:city": "London", "addr:housenumber": "92", "addr:postcode": "SE1 7AB", "addr:street": "Lower Marsh", "brand": "Betfred", "brand:wikidata": "Q4897425", "check_date": "2025-09-04", "name": "Betfred", "payment:cash": "yes", "payment:mastercard": "yes", "payment:visa": "yes", "shop": "bookmaker"}}, {"type": "node", "id": 10798047276, "lat": 51.5011048, "lon": -0.112441, "tags": {"addr:city": "London", "addr:housenumber": "108", "addr:postcode": "SE1 7AB", "addr:street": "Lower Marsh", "amenity": "bar", "check_date": "2026-05-29", "name": "Ruby Lucy Bar"}}, {"type": "node", "id": 10798047278, "lat": 51.5009901, "lon": -0.1122335, "tags": {"addr:city": "London", "addr:housenumber": "29", "addr:postcode": "SE1 7RG", "addr:street": "Lower Marsh", "amenity": "cafe", "cuisine": "bubble_tea", "fhrs:id": "1357989", "name": "Frozen River \u971c\u6c5f\u8336\u884c", "name:en": "Frozen River", "name:zh-Hans": "\u971c\u6c5f\u8336\u884c"}}, {"type": "node", "id": 10798047279, "lat": 51.501426, "lon": -0.1116217, "tags": {"addr:city": "London", "addr:housenumber": "93", "addr:postcode": "SE1 7AB", "addr:street": "Lower Marsh", "amenity": "fast_food", "branch": "Waterloo", "brand": "Greggs", "brand:wikidata": "Q3403981", "check_date": "2025-09-04", "check_date:opening_hours": "2025-09-03", "cuisine": "sandwich;bakery", "fhrs:id": "1341579", "indoor_seating": "yes", "name": "Greggs", "opening_hours": "Mo-Fr 06:00-18:00; Sa 07:00-17:00; Su 08:00-17:00", "payment:american_express": "yes", "takeaway": "yes", "website": "https://www.greggs.com/shops/waterloo/u1/5539"}}, {"type": "node", "id": 11085381485, "lat": 51.5005477, "lon": -0.1135594, "tags": {"amenity": "bench", "backrest": "yes"}}, {"type": "node", "id": 11118711147, "lat": 51.5005252, "lon": -0.1132866, "tags": {"access": "yes", "amenity": "bicycle_parking", "bicycle_parking": "stands", "capacity": "6", "covered": "no", "fee": "no", "operator:type": "public"}}, {"type": "node", "id": 11171724872, "lat": 51.500511, "lon": -0.1132414, "tags": {"addr:city": "London", "addr:housenumber": "17", "addr:postcode": "SE1 7RJ", "addr:street": "Lower Marsh", "amenity": "restaurant", "check_date": "2026-02-17", "contact:phone": "+44 20 7633 0164", "contact:website": "https://www.enoughtofeedanelephant.co.uk/", "fhrs:id": "1624132", "name": "Enough To Feed An Elephant", "payment:cash": "yes", "payment:credit_cards": "yes", "payment:debit_cards": "yes", "source:addr": "FHRS Open Data"}}, {"type": "node", "id": 11225891677, "lat": 51.5001825, "lon": -0.1141051, "tags": {"addr:city": "London", "addr:housenumber": "137", "addr:postcode": "SE1 7AE", "addr:street": "Lower Marsh", "amenity": "bar", "bar": "wine", "contact:email": "waterloo@unwinedbars.co.uk", "contact:phone": "+44 20 7803 9035", "contact:website": "https://unwinedbars.co.uk", "diet:gluten_free": "yes", "diet:vegan": "yes", "diet:vegetarian": "yes", "fhrs:id": "1469452", "food": "yes", "level": "0", "name": "Unwined in Waterloo", "opening_hours": "Mo-Fr 16:00-23:00", "outdoor_seating": "yes", "source:addr": "FHRS Open Data", "website:menu": "http://unwinedbars.co.uk/welcome/#menus-section"}}, {"type": "node", "id": 11229939569, "lat": 51.5003315, "lon": -0.110813, "tags": {"addr:city": "London", "addr:housenumber": "55", "addr:postcode": "SE1 7AU", "addr:street": "Baylis Road", "amenity": "restaurant", "check_date": "2025-09-04", "cuisine": "korean", "fhrs:id": "1488304", "name": "Bap Jo", "source:addr": "FHRS Open Data"}}, {"type": "node", "id": 11229939570, "lat": 51.5004706, "lon": -0.1107085, "tags": {"addr:housenumber": "49", "addr:street": "Baylis Road", "contact:facebook": "frenchcrewbarberswaterloo", "contact:instagram": "cutatwaterloo", "contact:twitter": "CutatWaterloo", "female": "yes", "male": "yes", "name": "Cut@Waterloo", "phone": "+44 20 3092 6931", "shop": "hairdresser", "website": "https://www.cutatwaterloo.co.uk/"}}, {"type": "node", "id": 11229939571, "lat": 51.5005025, "lon": -0.1106794, "tags": {"name": "Ksr Dry Cleaner", "shop": "dry_cleaning"}}, {"type": "node", "id": 11292767605, "lat": 51.5008432, "lon": -0.1125167, "tags": {"addr:city": "London", "addr:housenumber": "26", "addr:postcode": "SE1 7RJ", "addr:street": "Lower Marsh", "amenity": "dentist", "email": "hello@toothlondon.co.uk", "healthcare": "dentist", "name": "tooth Specialist Dental Centre", "opening_hours": "Mo-Fr 09:00-18:00; Sa,Su off", "operator": "tooth", "phone": "+44 20 7928 2875", "website": "https://www.toothlondon.co.uk"}}, {"type": "node", "id": 11525236804, "lat": 51.4988926, "lon": -0.1151521, "tags": {"amenity": "waste_disposal"}}, {"type": "node", "id": 11525236805, "lat": 51.4988473, "lon": -0.115136, "tags": {"amenity": "waste_disposal"}}, {"type": "node", "id": 11525236806, "lat": 51.49887, "lon": -0.115144, "tags": {"amenity": "waste_disposal"}}, {"type": "node", "id": 11525236807, "lat": 51.4988813, "lon": -0.115148, "tags": {"amenity": "waste_disposal"}}, {"type": "node", "id": 11525236808, "lat": 51.4988586, "lon": -0.11514, "tags": {"amenity": "waste_disposal"}}, {"type": "node", "id": 11591462173, "lat": 51.5002425, "lon": -0.1140226, "tags": {"addr:housenumber": "136", "addr:street": "Lower Marsh", "beauty": "nails", "check_date": "2026-05-30", "name": "Angela's Nails", "shop": "beauty", "website": "https://www.angelasnails.co.uk/"}}, {"type": "node", "id": 11736816681, "lat": 51.5008428, "lon": -0.1122851, "tags": {"name": "Turner & George", "opening_hours": "Tu-Fr 09:00-19:00; Sa 09:00-17:00", "shop": "butcher"}}, {"type": "node", "id": 11822802969, "lat": 51.5013569, "lon": -0.111818, "tags": {"addr:city": "London", "addr:housenumber": "97", "addr:postcode": "SE1 7AB", "addr:street": "Lower Marsh", "amenity": "restaurant", "brand": "Roti King", "brand:wikidata": "Q136335478", "check_date": "2025-09-04", "cuisine": "malaysian", "fhrs:id": "1780105", "name": "Roti King", "website": "https://rotiking.com/location/waterloo/"}}, {"type": "node", "id": 12690740601, "lat": 51.5012293, "lon": -0.1121564, "tags": {"addr:city": "London", "addr:housenumber": "101B", "addr:postcode": "SE1 7AB", "addr:street": "Lower Marsh", "addr:unit": "B", "amenity": "cafe", "check_date": "2025-08-16", "cuisine": "japanese", "fhrs:id": "1783938", "name": "Tokyo Bagel", "opening_hours": "Mo-Su 09:00-17:00", "phone": "+44 7419 831610", "shop": "bakery", "website": "https://tokyobageluk.com/", "website:menu": "https://tokyobageluk.com/bagel"}}, {"type": "node", "id": 12691190706, "lat": 51.5008928, "lon": -0.1114198, "tags": {"access": "private", "amenity": "parking", "parking": "surface", "surface": "asphalt"}}, {"type": "node", "id": 12695192311, "lat": 51.4989276, "lon": -0.1120969, "tags": {"amenity": "ticket_validator", "barrier": "turnstile", "indoor": "yes"}}, {"type": "node", "id": 12718772295, "lat": 51.5009141, "lon": -0.1125576, "tags": {"amenity": "marketplace", "check_date": "2025-10-12", "name": "Lower Marsh Market", "opening_hours": "Mo-Fr 10:00-15:00; Sa-Su off", "website": "https://www.lowermarshmarket.com/", "wheelchair": "yes"}}, {"type": "node", "id": 12725527107, "lat": 51.5012604, "lon": -0.1120746, "tags": {"addr:city": "London", "addr:housenumber": "101A", "addr:postcode": "SE1 7AB", "addr:street": "Lower Marsh", "check_date": "2026-05-29", "cuisine": "asian", "fhrs:id": "1754270", "name": "Mix Store", "shop": "convenience", "theme": "asian"}}, {"type": "node", "id": 13103481999, "lat": 51.5011202, "lon": -0.1119134, "tags": {"addr:city": "London", "addr:housenumber": "34", "addr:postcode": "SE1 7RG", "addr:street": "Lower Marsh", "amenity": "bar", "brewery": "yes", "check_date": "2025-09-03", "cuisine": "asian", "diet:vegan": "yes", "fhrs:id": "958899", "food": "yes", "indoor_seating": "yes", "name": "Vaulty Towers", "opening_hours": "Mo-We 12:00-23:00; Th 12:00-24:00; Fr-Sa 12:00-01:00; Su 12:00-22:00", "opening_hours:kitchen": "Mo-Fr 17:00-21:00; Sa-Su 12:00-21:00", "outdoor_seating": "yes", "payment:american_express": "yes", "payment:cash": "no", "payment:credit_cards": "yes", "payment:debit_cards": "yes", "source": "Bing", "source:addr": "FHRS Open Data", "website": "https://www.vaultytowers.london"}}, {"type": "node", "id": 13103482000, "lat": 51.5014819, "lon": -0.111451, "tags": {"addr:city": "London", "addr:housenumber": "90", "addr:postcode": "SE1 7AB", "addr:street": "Lower Marsh", "amenity": "restaurant", "check_date": "2023-03-03", "cuisine": "thai", "fhrs:id": "484296", "name": "Maries cafe", "opening_hours": "Mo-Sa 11:00-15:00, 17:00-22:30", "opening_hours:signed": "no", "payment:american_express": "yes", "phone": "+44 20 7928 1050", "source:addr": "FHRS Open Data"}}, {"type": "node", "id": 13116885908, "lat": 51.5006988, "lon": -0.1132497, "tags": {"addr:city": "London", "addr:housenumber": "121", "addr:postcode": "SE1 7AE", "addr:street": "Lower Marsh", "amenity": "pub", "check_date": "2025-09-03", "contact:email": "enquiries@camelandartichoke.com", "contact:instagram": "camelandartichoke", "contact:phone": "+44 20 7620 3296", "contact:website": "https://camelandartichoke.co.uk/", "fhrs:id": "484301", "indoor_seating": "yes", "name": "Camel & Artichoke", "opening_hours": "Mo-Su 12:00-23:00", "outdoor_seating": "yes", "payment:american_express": "yes", "smoking": "outside", "source:addr": "FHRS Open Data", "toilets": "yes", "toilets:access": "customers", "website:menu": "https://camelandartichoke.co.uk/food/", "wheelchair": "yes"}}, {"type": "node", "id": 13119181980, "lat": 51.5011707, "lon": -0.112286, "tags": {"check_date": "2025-09-04", "hairdresser": "barber", "name": "Head Office", "shop": "hairdresser", "website": "https://headofficegrooming.co.uk/"}}, {"type": "node", "id": 13807259630, "lat": 51.5005605, "lon": -0.1133517, "tags": {"amenity": "motorcycle_parking", "capacity": "2", "fee": "no", "source": "Lambeth Council FOI response (OGL 3.0)"}}, {"type": "node", "id": 13807259632, "lat": 51.4984215, "lon": -0.1124809, "tags": {"amenity": "motorcycle_parking", "fee": "no", "source": "Lambeth Council FOI response (OGL 3.0)"}}, {"type": "node", "id": 13807259633, "lat": 51.5009022, "lon": -0.1124705, "tags": {"amenity": "motorcycle_parking", "fee": "no", "source": "Lambeth Council FOI response (OGL 3.0)"}}, {"type": "node", "id": 13895481175, "lat": 51.5006779, "lon": -0.1133158, "tags": {"shop": "vacant"}}, {"type": "node", "id": 13895481179, "lat": 51.5010643, "lon": -0.1125187, "tags": {"brand": "Vodafone", "brand:wikidata": "Q122141", "name": "Vodafone", "shop": "mobile_phone"}}, {"type": "node", "id": 13895481182, "lat": 51.5003354, "lon": -0.1138976, "tags": {"amenity": "bar", "name": "Chunnel Bar"}}, {"type": "way", "id": 23486327, "center": {"lat": 51.5008941, "lon": -0.1114601}, "nodes": [254343306, 12691168960, 12691168959, 12691168958, 12691168961, 12691168953, 12691168954, 12691168955, 12691168956, 12691168957, 254343307, 12691168978, 2820523868, 12691168979, 12691168980, 12691168981, 12691168987, 12691168982, 12691168983, 12691168984, 12691168986, 12691168985, 12691168946, 12691168947, 2820523869, 9872329376, 9872329375, 10798047265, 12691168949, 10798181609, 12691168950, 10798181618, 12691168970, 12691168969, 12691168971, 12691168968, 10798181614, 10798047291, 10798181622, 1398632547, 254343882, 2820523871, 2820523873, 1641763097, 1641773600, 1308187757, 12691168999, 254343310, 1641763123, 254343311, 12691168943, 12691168944, 12691168945, 254343312, 1641763054, 1641763143, 12691168967, 1641763137, 12691168966, 1641763115, 12691168965, 1232207819, 12691169000, 12691190701, 12691168964, 7650879417, 254343306], "tags": {"addr:city": "London", "addr:postcode": "SE1 7RH", "addr:street": "Johanna Street", "amenity": "school", "capacity": "246", "check_date": "2025-08-30", "isced:level": "0;1", "max_age": "11", "min_age": "3", "name": "Oasis Academy South Bank Primary", "old_name": "Johanna Primary School", "operator": "Oasis Community Learning", "operator:type": "private", "operator:wikidata": "Q120478302", "phone": "+44 20 79285814", "ref:GB:uprn": "100023225523", "ref:edubase": "137430", "ref:edubase:group": "4076", "religion": "none", "school": "primary", "school:boarding": "no", "school:gender": "mixed", "school:group:type": "multi_academy_trust", "school:selective": "no", "school:type": "academy", "website": "https://www.oasisacademysouthbankprimary.org/", "wikidata": "Q66229311"}}, {"type": "way", "id": 126081730, "center": {"lat": 51.5008792, "lon": -0.1130459}, "nodes": [506326948, 1398646052, 1398646028, 1398646168, 506326948], "tags": {"addr:housenumber": "113a", "addr:street": "Lower Marsh", "amenity": "doctors", "building": "yes", "check_date": "2025-09-04", "healthcare": "doctor", "name": "Waterloo Health Centre", "opening_hours": "Mo-Tu, Th-Fr 08:00-18:30; We 08:00-20:15", "website": "https://www.waterloohealth.co.uk/", "wheelchair": "limited", "wikidata": "Q131529129"}}, {"type": "way", "id": 151353189, "center": {"lat": 51.501871, "lon": -0.111735}, "nodes": [1641744556, 1641744555, 1641744650, 1641744648, 1641744589, 1641744670, 10970899289, 1641744600, 1641744640, 1641744656, 1641744582, 1641744631, 1641744612, 8850435238, 8850435237, 8850435228, 10970899292, 10970899291, 8850435236, 8850435235, 1641744596, 1641744573, 1641744547, 1641744560, 1641744632, 1641744569, 1641744571, 1641744556], "tags": {"amenity": "parking", "fee": "yes", "name": "Waterloo Station Car Park", "parking": "street_side", "source": "Bing"}}, {"type": "way", "id": 477370216, "center": {"lat": 51.4992183, "lon": -0.1156655}, "nodes": [1923054490, 11524834261, 4707372279, 4707372278, 4707372277, 11524834259, 4707372276, 4707372268, 4707372270, 11524836093, 11524836092, 4707372275, 4707372274, 4707372273, 4707372272, 4707372271, 11524836099, 1923054479, 1923054490], "tags": {"access": "yes", "addr:city": "London", "addr:postcode": "SE1 7EL", "addr:street": "Upper Marsh", "amenity": "parking", "capacity": "90", "fee": "yes", "lit": "yes", "name": "Waterloo Upper Marsh", "note": "\u00a33 - 1 hour, \u00a37.50 - 3 hour, \u00a320.00 - 24 hour", "opening_hours": "24/7", "operator": "Britannia Parking", "parking": "surface", "source": "survey", "supervised": "yes", "surface": "asphalt", "website": "https://www.britannia-parking.co.uk/where-to-park/London-Waterloo"}}, {"type": "way", "id": 624599066, "center": {"lat": 51.4982033, "lon": -0.1116792}, "nodes": [1110386418, 1110386419, 1110386421, 10969942973, 1112100208, 1112100203, 1112100204, 1112100205, 1110386416, 1110386417, 1110386418], "tags": {"addr:city": "London", "addr:housename": "Lincoln House", "addr:housenumber": "75", "addr:postcode": "SE1 7HS", "addr:street": "Westminster Bridge Road", "amenity": "school", "capacity": "760", "check_date": "2025-07-09", "fhrs:id": "763899", "isced:level": "2;3", "max_age": "19", "min_age": "11", "name": "Oasis Academy South Bank", "operator": "Oasis Community Learning", "operator:type": "private", "operator:wikidata": "Q120478302", "phone": "+44 20 79214200", "ref:GB:uprn": "10091119897", "ref:edubase": "139659", "ref:edubase:group": "4076", "religion": "none", "school": "secondary", "school:gender": "mixed", "school:group:type": "multi_academy_trust", "school:selective": "no", "school:type": "free", "source:addr": "FHRS Open Data", "website": "https://www.oasisacademysouthbank.org/", "wikidata": "Q66230031"}}, {"type": "way", "id": 1181226546, "center": {"lat": 51.4984917, "lon": -0.1119013}, "nodes": [10969942974, 10969942975, 12908193973, 10969942977, 10969942978, 10969942979, 10969942980, 10969942981, 10969942982, 10969942983, 10969942984, 10969942985, 10969942986, 10969942987, 12908193971, 12908193972, 10969942988, 10969942989, 10969942990, 10969942991, 10969942992, 10969942993, 10969942994, 10969942995, 10969942974], "tags": {"addr:city": "London", "addr:housenumber": "77", "addr:postcode": "SE1 7HA", "addr:street": "Westminster Bridge Road", "amenity": "place_of_worship", "building": "church", "heritage": "2", "listed_status": "Grade II", "name": "Christ Church and Upton Chapel", "ref:GB:nhle": "1081059", "ref:GB:uprn": "200000486452", "religion": "christian", "source:addr:postcode": "ONSUD;OS Open UPRN", "wikidata": "Q5108695", "wikipedia": "en:Christ Church, Lambeth"}}, {"type": "way", "id": 1240496077, "center": {"lat": 51.4989513, "lon": -0.1153641}, "nodes": [11525236794, 11525236795, 11525236796, 11525236797, 11525236794], "tags": {"amenity": "parking_space", "capacity": "3", "parking_space": "disabled"}}]}