{"version": 0.6, "generator": "Overpass API 0.7.62.11 87bfad18", "osm3s": {"timestamp_osm_base": "2026-06-10T16:35:30Z", "copyright": "The data included in this document is from www.openstreetmap.org. The data is made available under ODbL."}, "elements": [{"type": "node", "id": 26508294, "lat": 51.5271172, "lon": -0.1078232, "tags": {"amenity": "telephone", "booth": "K2", "check_date": "2025-07-21", "covered": "booth", "listed_status": "Grade II", "operator": "BT", "operator:wikidata": "Q593786", "wikidata": "Q27084165"}}, {"type": "node", "id": 452433537, "lat": 51.5249303, "lon": -0.1108724, "tags": {"addr:city": "London", "addr:postcode": "EC1R 4SQ", "addr:street": "Rosebery Avenue", "amenity": "post_office", "brand": "Post Office", "brand:wikidata": "Q1783168", "name": "Mount Pleasant Post Office", "opening_hours": "Mo-Fr 09:00-17:30; Sa 09:00-12:30", "operator": "Post Office Ltd", "ref:pol_id": "19669", "source": "pol_branch_list_2018-01-24", "source:opening_hours": "survey", "website": "https://www.postoffice.co.uk/branch-finder/0260037/mount-pleasant", "wheelchair": "yes"}}, {"type": "node", "id": 452433539, "lat": 51.5249054, "lon": -0.1108845, "tags": {"amenity": "atm", "check_date": "2025-08-24", "operator": "Post Office"}}, {"type": "node", "id": 452445964, "lat": 51.526426, "lon": -0.1085591, "tags": {"addr:city": "London", "addr:housenumber": "1-7", "addr:postcode": "EC1R 4SA", "addr:street": "Tysoe Street", "brand": "Co-op Food", "brand:wikidata": "Q3277439", "brand:wikipedia": "en:Co-op Food", "check_date": "2025-07-21", "name": "Co-op Food", "opening_hours": "07:00-23:00", "operator": "The Co-operative Group", "operator:wikidata": "Q117202", "phone": "+44 20 7713 8967", "shop": "convenience", "website": "https://www.coop.co.uk/store-finder/EC1R-4SA/1-7-tysoe-street"}}, {"type": "node", "id": 452445966, "lat": 51.5266687, "lon": -0.1084984, "tags": {"addr:city": "London", "addr:postcode": "EC1R 4QY", "addr:street": "Rosebery Avenue", "amenity": "restaurant", "cuisine": "mediterranean", "name": "Morchella", "opening_hours": "Mo 17:30-23:30; Tu-Sa 12:00-14:30, 17:30-23:30; Su 12:00-21:00", "phone": "+44 20 7916 0492", "website": "https://www.morchelladining.co.uk/bookings"}}, {"type": "node", "id": 452445968, "lat": 51.5258703, "lon": -0.1098199, "tags": {"amenity": "restaurant", "cuisine": "greek", "indoor_seating": "yes", "outdoor_seating": "yes"}}, {"type": "node", "id": 581005262, "lat": 51.5243973, "lon": -0.1100329, "tags": {"name": "The Gazzanos Italian Deli", "shop": "convenience"}}, {"type": "node", "id": 581005278, "lat": 51.5247707, "lon": -0.1100541, "tags": {"addr:city": "London", "addr:housenumber": "88-94", "addr:postcode": "EC1R 3EA", "addr:street": "Farringdon Road", "addr:suburb": "Islington", "amenity": "restaurant", "check_date": "2025-07-21", "fhrs:id": "1067101", "name": "Quality Chop House", "opening_hours": "Mo-Sa 12:00-15:00, 18:00-23:00; Su 12:00-16:00", "phone": "+44 20 7278 1452", "source:addr": "FHRS Open Data", "website": "https://thequalitychophouse.com/"}}, {"type": "node", "id": 581005279, "lat": 51.5248882, "lon": -0.110213, "tags": {"addr:city": "London", "addr:housenumber": "100", "addr:postcode": "EC1R 3EA", "addr:street": "Farringdon Road", "check_date": "2025-07-21", "cuisine": "fish_and_chips", "email": "khopslondon@gmail.com", "name": "Khops", "opening_hours": "Mo-Sa 09:30-19:30", "phone": "+44 20 7837 5976", "shop": "hairdresser", "website": "http://khops.co/", "wheelchair": "limited"}}, {"type": "node", "id": 581391379, "lat": 51.525274, "lon": -0.1099403, "tags": {"addr:city": "London", "addr:country": "GB", "amenity": "motorcycle_parking", "capacity": "10", "capacity:disabled": "no", "capacity:parent": "no", "capacity:women": "no", "covered": "no", "fee": "no", "park_ride": "no", "parking": "surface"}}, {"type": "node", "id": 584514525, "lat": 51.5257964, "lon": -0.1097388, "tags": {"amenity": "fast_food"}}, {"type": "node", "id": 611618555, "lat": 51.526439, "lon": -0.107941, "tags": {"amenity": "bicycle_parking"}}, {"type": "node", "id": 611618582, "lat": 51.525992, "lon": -0.108859, "tags": {"amenity": "bicycle_parking", "bicycle_parking": "stands", "covered": "no"}}, {"type": "node", "id": 869696963, "lat": 51.5264502, "lon": -0.1092844, "tags": {"amenity": "bicycle_rental", "bicycle_rental": "docking_station", "brand": "Santander Cycles", "brand:wikidata": "Q807961", "capacity": "20", "historic:ref": "CH14046", "local": "Clerkenwell", "name": "Tysoe Street", "network": "tfl_cycle_hire", "official_name": "Tysoe Street, Clerkenwell", "official_ref": "264", "operator": "Serco", "operator:wikidata": "Q499104"}}, {"type": "node", "id": 952366118, "lat": 51.5269852, "lon": -0.109357, "tags": {"amenity": "parking", "fee": "yes", "parking": "surface"}}, {"type": "node", "id": 1504407929, "lat": 51.5255776, "lon": -0.1088675, "tags": {"amenity": "drinking_water", "image": "http://findafountain.org/system/69/original/uk-greater-london-london-islington-spa-fields-extension-1-outdoor-fountain.bmp", "maintenance": "ok", "name": "Spa Fields Extension 1", "source": "osmsync:findafountain", "source:pkey": "57"}}, {"type": "node", "id": 1609318597, "lat": 51.5263822, "lon": -0.108182, "tags": {"amenity": "bicycle_parking", "bicycle_parking": "stands", "capacity": "8", "covered": "no", "source": "photograph"}}, {"type": "node", "id": 1773643954, "lat": 51.5248533, "lon": -0.1101574, "tags": {"addr:city": "London", "addr:housenumber": "102", "addr:postcode": "EC1R 3EA", "addr:street": "Farringdon Road", "amenity": "fast_food", "cuisine": "fish_and_chips", "name": "Fryingdon Fish Bar"}}, {"type": "node", "id": 2142620341, "lat": 51.5254684, "lon": -0.110094, "tags": {"addr:city": "London", "addr:housenumber": "11-13", "addr:postcode": "EC1R 4QD", "addr:street": "Exmouth Market", "amenity": "restaurant", "brand": "Caravan", "brand:wikidata": "Q114771226", "email": "reservations@caravanrestaurants.co.uk", "fhrs:id": "417564", "indoor_seating": "yes", "name": "Caravan", "opening_hours": "Mo 08:00-22:30; Tu-Th 08:00-23:00; Fr 08:00+; Sa 10:00+; Su 10:00-16:00", "outdoor_seating": "yes", "phone": "+44 20 7833 8115", "website": "https://www.caravanrestaurants.co.uk/", "wheelchair": "no"}}, {"type": "node", "id": 2915091310, "lat": 51.5240123, "lon": -0.1066341, "tags": {"amenity": "restaurant", "name": "Clerkenwell Kitchen"}}, {"type": "node", "id": 3307750173, "lat": 51.5254305, "lon": -0.1082074, "tags": {"amenity": "bench", "backrest": "yes", "colour": "gray", "material": "metal", "seats": "4"}}, {"type": "node", "id": 3307750174, "lat": 51.5254481, "lon": -0.1081706, "tags": {"amenity": "bench", "backrest": "yes", "colour": "gray", "material": "metal", "seats": "4"}}, {"type": "node", "id": 3307750175, "lat": 51.5255396, "lon": -0.1080181, "tags": {"amenity": "bench", "backrest": "yes", "colour": "gray", "material": "metal", "seats": "4"}}, {"type": "node", "id": 3307750176, "lat": 51.525597, "lon": -0.1079364, "tags": {"amenity": "bench", "backrest": "yes", "colour": "gray", "material": "metal", "seats": "4"}}, {"type": "node", "id": 3307750178, "lat": 51.5256205, "lon": -0.107902, "tags": {"amenity": "bench", "backrest": "yes", "colour": "gray", "material": "metal", "seats": "4"}}, {"type": "node", "id": 3307750180, "lat": 51.5256401, "lon": -0.1078718, "tags": {"amenity": "bench", "backrest": "yes", "colour": "gray", "material": "metal", "seats": "4"}}, {"type": "node", "id": 3307750181, "lat": 51.5256928, "lon": -0.1085431, "tags": {"amenity": "bench", "backrest": "yes", "colour": "gray", "material": "metal", "seats": "4"}}, {"type": "node", "id": 3307750182, "lat": 51.5256677, "lon": -0.1078409, "tags": {"amenity": "bench", "backrest": "yes", "colour": "gray", "material": "metal", "seats": "4"}}, {"type": "node", "id": 3307750183, "lat": 51.5257231, "lon": -0.1084225, "tags": {"amenity": "bench", "backrest": "yes", "colour": "gray", "material": "metal", "seats": "4"}}, {"type": "node", "id": 3307750184, "lat": 51.5256904, "lon": -0.1078079, "tags": {"amenity": "bench", "backrest": "yes", "colour": "gray", "material": "metal", "seats": "4"}}, {"type": "node", "id": 3307750186, "lat": 51.5257099, "lon": -0.1077865, "tags": {"amenity": "bench", "backrest": "yes", "colour": "gray", "material": "metal", "seats": "4"}}, {"type": "node", "id": 3579412480, "lat": 51.526389, "lon": -0.1082818, "tags": {"amenity": "cafe", "cuisine": "greek", "internet_access": "wlan", "name": "Briki", "website": "https://briki.london/"}}, {"type": "node", "id": 3704282527, "lat": 51.5252995, "lon": -0.1103391, "tags": {"amenity": "bicycle_parking", "bicycle_parking": "stands", "capacity": "6", "check_date": "2022-11-15", "covered": "no"}}, {"type": "node", "id": 3704282528, "lat": 51.5258226, "lon": -0.1092328, "tags": {"amenity": "bicycle_parking", "bicycle_parking": "rack", "capacity": "4"}}, {"type": "node", "id": 3783129751, "lat": 51.5255148, "lon": -0.1100121, "tags": {"addr:city": "London", "addr:housenumber": "15", "addr:postcode": "EC1R 4QD", "addr:street": "Exmouth Market", "amenity": "restaurant", "brand": "Pizza Pilgrims", "brand:wikidata": "Q110454959", "changing_table": "yes", "check_date": "2022-11-15", "cuisine": "pizza", "diet:vegan": "yes", "diet:vegetarian": "yes", "email": "exmouthmarket@pizzapilgrims.co.uk", "fhrs:id": "951975", "indoor_seating": "yes", "name": "Pizza Pilgrims", "opening_hours": "Mo-Sa 11:30-22:30; Su 12:00-21:30", "outdoor_seating": "yes", "payment:cash": "no", "payment:credit_cards": "yes", "payment:debit_cards": "yes", "phone": "+44 20 8069 6969", "takeaway": "yes", "website": "https://www.pizzapilgrims.co.uk/", "wheelchair": "yes"}}, {"type": "node", "id": 3833111114, "lat": 51.5240458, "lon": -0.1073575, "tags": {"addr:city": "London", "addr:country": "GB", "amenity": "motorcycle_parking", "capacity": "14", "covered": "no"}}, {"type": "node", "id": 3833111115, "lat": 51.5242644, "lon": -0.1081446, "tags": {"addr:city": "London", "addr:country": "GB", "amenity": "motorcycle_parking", "covered": "no"}}, {"type": "node", "id": 3833111116, "lat": 51.5259848, "lon": -0.1078254, "tags": {"addr:city": "London", "addr:country": "GB", "amenity": "motorcycle_parking", "covered": "no"}}, {"type": "node", "id": 4181947592, "lat": 51.5244541, "lon": -0.1097861, "tags": {"amenity": "bicycle_parking", "bicycle_parking": "rack", "capacity": "16", "check_date": "2025-07-21", "covered": "no"}}, {"type": "node", "id": 4181947593, "lat": 51.5247032, "lon": -0.1099605, "tags": {"addr:city": "London", "addr:housenumber": "88-94", "addr:postcode": "EC1R 3EA", "addr:street": "Farringdon Road", "addr:suburb": "Islington", "fhrs:id": "559419", "name": "The Quality Chop House Shop", "opening_hours": "Mo-Th 11:00-19:00; Fr 10:00-20:00; Sa 09:00-18:00; Su 11:00-17:00", "phone": "+44 20 3490 6228", "shop": "butcher", "source:addr": "FHRS Open Data", "website": "https://thequalitychophouse.com/shop/", "wheelchair": "limited"}}, {"type": "node", "id": 4182125149, "lat": 51.524929, "lon": -0.1102709, "tags": {"addr:city": "London", "addr:housenumber": "102-104", "addr:postcode": "EC1R 3EA", "addr:street": "Farringdon Road", "addr:suburb": "Islington", "amenity": "restaurant", "source:addr": "FHRS Open Data"}}, {"type": "node", "id": 4182792260, "lat": 51.5255118, "lon": -0.1101619, "tags": {"name": "Royal Dry Cleaners", "shop": "dry_cleaning"}}, {"type": "node", "id": 4182837649, "lat": 51.5238229, "lon": -0.1092298, "tags": {"addr:city": "London", "addr:street": "Farringdon Road", "name": "Zip Water", "shop": "trade", "trade": "plumbing", "website": "https://www.zipwater.com"}}, {"type": "node", "id": 7053829520, "lat": 51.5244666, "lon": -0.1101205, "tags": {"addr:city": "London", "addr:floor": "Ground And Basement Floor", "addr:housenumber": "171", "addr:postcode": "EC1R 3AL", "addr:street": "Farringdon Road", "addr:suburb": "Islington", "amenity": "restaurant", "check_date": "2025-07-21", "contact:facebook": "machankitchenfarringdon", "contact:instagram": "machankitchen_farringdon", "cuisine": "meat;wine", "fhrs:id": "1006163", "name": "Machan Kitchen - Sri Lankan Restaurant", "opening_hours": "Mo-Sa 12:00-14:30, 17:30-23:30; Su 12:00-21:00", "phone": "+44 20 7916 8089", "website": "https://machankitchen.co.uk/", "wheelchair": "no"}}, {"type": "node", "id": 7620445985, "lat": 51.525642, "lon": -0.1098365, "tags": {"addr:city": "London", "addr:country": "GB", "addr:housenumber": "21", "addr:postcode": "EC1R 4QD", "addr:street": "Exmouth Market", "amenity": "fast_food", "brand": "Pret A Manger", "brand:wikidata": "Q2109109", "contact:website": "https://locations.pret.co.uk/london/21-exmouth-market", "cuisine": "sandwich", "diet:vegan": "yes", "diet:vegetarian": "only", "fhrs:id": "1012458", "name": "Pret A Manger", "short_name": "Pret", "takeaway": "yes", "wheelchair": "yes"}}, {"type": "node", "id": 8980429596, "lat": 51.5254669, "lon": -0.1081396, "tags": {"amenity": "bench", "backrest": "yes", "colour": "gray", "material": "metal", "seats": "4"}}, {"type": "node", "id": 8980429597, "lat": 51.5255007, "lon": -0.1080796, "tags": {"amenity": "bench", "backrest": "yes", "colour": "gray", "material": "metal", "seats": "4"}}, {"type": "node", "id": 8980429598, "lat": 51.5255191, "lon": -0.1080478, "tags": {"amenity": "bench", "backrest": "yes", "colour": "gray", "material": "metal", "seats": "4"}}, {"type": "node", "id": 9374766707, "lat": 51.5266073, "lon": -0.1092219, "tags": {"access": "private", "amenity": "bicycle_parking", "bicycle_parking": "shed", "capacity": "6", "covered": "yes", "operator": "cyclehoop", "source": "Survey"}}, {"type": "node", "id": 9695679417, "lat": 51.5267355, "lon": -0.1084104, "tags": {"addr:city": "London", "addr:housenumber": "84-86", "addr:postcode": "EC1R 4QY", "addr:street": "Rosebery Avenue", "amenity": "restaurant", "cuisine": "mediterranean", "website": "https://www.morchelladining.co.uk/"}}, {"type": "node", "id": 9788822149, "lat": 51.5242487, "lon": -0.1082302, "tags": {"amenity": "bicycle_parking", "bicycle_parking": "stands", "capacity": "2", "covered": "no"}}, {"type": "node", "id": 9927577417, "lat": 51.52612, "lon": -0.1099052, "tags": {"amenity": "bicycle_parking", "bicycle_parking": "stands", "capacity": "2", "check_date": "2022-08-02", "covered": "no"}}, {"type": "node", "id": 9927577418, "lat": 51.5261192, "lon": -0.1104397, "tags": {"amenity": "bicycle_parking", "bicycle_parking": "stands", "capacity": "4", "check_date": "2022-08-02", "covered": "no"}}, {"type": "node", "id": 9927577517, "lat": 51.52603, "lon": -0.1099422, "tags": {"amenity": "bicycle_parking", "bicycle_parking": "stands", "capacity": "2", "check_date": "2022-08-02", "covered": "no"}}, {"type": "node", "id": 9965855563, "lat": 51.5262046, "lon": -0.1086833, "tags": {"addr:city": "London", "addr:floor": "0", "addr:housenumber": "55", "addr:postcode": "EC1R 4QL", "addr:street": "Exmouth Market", "amenity": "cafe", "diet:vegan": "yes", "diet:vegetarian": "yes", "fhrs:id": "1373767", "indoor_seating": "yes", "name": "The Street Easy", "outdoor_seating": "yes", "source:addr": "FHRS Open Data"}}, {"type": "node", "id": 9989083321, "lat": 51.5249847, "lon": -0.1094471, "tags": {"amenity": "bicycle_parking", "bicycle_parking": "stands", "capacity": "4", "covered": "no"}}, {"type": "node", "id": 9989083322, "lat": 51.5250385, "lon": -0.1094421, "tags": {"amenity": "bicycle_parking", "bicycle_parking": "stands", "capacity": "4", "covered": "no"}}, {"type": "node", "id": 9989083323, "lat": 51.5249785, "lon": -0.1093512, "tags": {"amenity": "bicycle_parking", "bicycle_parking": "stands", "capacity": "4", "covered": "no"}}, {"type": "node", "id": 10004854617, "lat": 51.5245509, "lon": -0.1073798, "tags": {"amenity": "charging_station", "brand": "Source London", "brand:wikidata": "Q7565133", "brand:wikipedia": "en:Source London", "capacity": "3", "check_date": "2022-09-06", "name": "Source London"}}, {"type": "node", "id": 10123891317, "lat": 51.5257763, "lon": -0.1098161, "tags": {"amenity": "bicycle_parking", "bicycle_parking": "stands", "capacity": "8", "check_date": "2022-10-23", "covered": "no"}}, {"type": "node", "id": 10123891417, "lat": 51.5256743, "lon": -0.1097955, "tags": {"amenity": "bicycle_parking", "bicycle_parking": "stands", "capacity": "4", "check_date": "2022-10-23", "covered": "no"}}, {"type": "node", "id": 10123891517, "lat": 51.5257922, "lon": -0.1099702, "tags": {"amenity": "bicycle_parking", "bicycle_parking": "stands", "capacity": "4", "check_date": "2022-10-23", "covered": "no"}}, {"type": "node", "id": 10188404805, "lat": 51.5253947, "lon": -0.1102797, "tags": {"amenity": "telephone", "booth": "K6", "check_date": "2025-07-21", "covered": "booth"}}, {"type": "node", "id": 10273109214, "lat": 51.5239159, "lon": -0.1088532, "tags": {"amenity": "bicycle_parking", "bicycle_parking": "stands", "capacity": "2", "covered": "no", "ref:GB:tflcid": "RWG057503"}}, {"type": "node", "id": 10273109317, "lat": 51.5265911, "lon": -0.1085358, "tags": {"amenity": "bicycle_parking", "bicycle_parking": "stands", "capacity": "4", "covered": "no", "ref:GB:tflcid": "RWG057708"}}, {"type": "node", "id": 10273109318, "lat": 51.52446, "lon": -0.1077585, "tags": {"amenity": "bicycle_parking", "bicycle_parking": "stands", "capacity": "4", "ref:GB:tflcid": "RWG058618"}}, {"type": "node", "id": 10273109319, "lat": 51.5240256, "lon": -0.1086642, "tags": {"amenity": "bicycle_parking", "bicycle_parking": "stands", "capacity": "2", "ref:GB:tflcid": "RWG057502"}}, {"type": "node", "id": 10273109516, "lat": 51.5245193, "lon": -0.1076411, "tags": {"amenity": "bicycle_parking", "bicycle_parking": "stands", "capacity": "6", "ref:GB:tflcid": "RWG058619"}}, {"type": "node", "id": 10273109517, "lat": 51.5244086, "lon": -0.107865, "tags": {"amenity": "bicycle_parking", "bicycle_parking": "stands", "capacity": "2", "ref:GB:tflcid": "RWG058617"}}, {"type": "node", "id": 10273109518, "lat": 51.524112, "lon": -0.1085049, "tags": {"amenity": "bicycle_parking", "bicycle_parking": "stands", "capacity": "10", "ref:GB:tflcid": "RWG057500"}}, {"type": "node", "id": 10273109519, "lat": 51.5243745, "lon": -0.1079548, "tags": {"amenity": "bicycle_parking", "bicycle_parking": "stands", "capacity": "2", "ref:GB:tflcid": "RWG058615"}}, {"type": "node", "id": 10273110112, "lat": 51.5238644, "lon": -0.1087697, "tags": {"amenity": "bicycle_parking", "bicycle_parking": "stands", "capacity": "2", "covered": "no", "ref:GB:tflcid": "RWG057505"}}, {"type": "node", "id": 10273114210, "lat": 51.5246221, "lon": -0.1087824, "tags": {"amenity": "bicycle_parking", "bicycle_parking": "stands", "capacity": "4", "ref:GB:tflcid": "RWG058348"}}, {"type": "node", "id": 10273114211, "lat": 51.5243895, "lon": -0.1079144, "tags": {"amenity": "bicycle_parking", "bicycle_parking": "stands", "capacity": "2", "ref:GB:tflcid": "RWG058616"}}, {"type": "node", "id": 10273115036, "lat": 51.5254412, "lon": -0.1054756, "tags": {"amenity": "bicycle_parking", "bicycle_parking": "stands", "capacity": "4", "ref:GB:tflcid": "RWG057697"}}, {"type": "node", "id": 10273115125, "lat": 51.5246842, "lon": -0.1072734, "tags": {"amenity": "bicycle_parking", "bicycle_parking": "stands", "capacity": "4", "ref:GB:tflcid": "RWG058353"}}, {"type": "node", "id": 10273115248, "lat": 51.5263137, "lon": -0.107467, "tags": {"amenity": "bicycle_parking", "bicycle_parking": "stands", "capacity": "4", "ref:GB:tflcid": "RWG058332"}}, {"type": "node", "id": 10273115345, "lat": 51.5247862, "lon": -0.1068481, "tags": {"amenity": "bicycle_parking", "bicycle_parking": "stands", "capacity": "2", "ref:GB:tflcid": "RWG058351"}}, {"type": "node", "id": 10273115720, "lat": 51.5248468, "lon": -0.1069186, "tags": {"amenity": "bicycle_parking", "bicycle_parking": "stands", "capacity": "8", "ref:GB:tflcid": "RWG058352"}}, {"type": "node", "id": 10273115823, "lat": 51.5257947, "lon": -0.1074069, "tags": {"amenity": "bicycle_parking", "capacity": "6", "ref:GB:tflcid": "RWG057705"}}, {"type": "node", "id": 10273132833, "lat": 51.5260718, "lon": -0.1075562, "tags": {"amenity": "bicycle_parking", "capacity": "6", "ref:GB:tflcid": "RWG057706"}}, {"type": "node", "id": 10273133218, "lat": 51.5267797, "lon": -0.1076648, "tags": {"amenity": "bicycle_parking", "bicycle_parking": "post_hoop", "capacity": "2", "ref:GB:tflcid": "RWG058330"}}, {"type": "node", "id": 10273137830, "lat": 51.5266879, "lon": -0.1076404, "tags": {"amenity": "bicycle_parking", "bicycle_parking": "stands", "capacity": "4", "ref:GB:tflcid": "RWG058331"}}, {"type": "node", "id": 11343436887, "lat": 51.5255644, "lon": -0.1099651, "tags": {"amenity": "restaurant", "cuisine": "burger", "name": "Black Bear Burger"}}, {"type": "node", "id": 11343436888, "lat": 51.5262139, "lon": -0.1082603, "tags": {"name": "Belle Ame", "shop": "beauty"}}, {"type": "node", "id": 11343436890, "lat": 51.5257963, "lon": -0.1091607, "tags": {"amenity": "fast_food", "check_date": "2024-07-14", "cuisine": "donut", "name": "doh\u2018hut", "payment:cash": "no", "payment:credit_cards": "yes", "payment:debit_cards": "yes", "takeaway": "yes"}}, {"type": "node", "id": 11343436891, "lat": 51.5263472, "lon": -0.108387, "tags": {"name": "Furanxo", "shop": "deli"}}, {"type": "node", "id": 11881067469, "lat": 51.5244269, "lon": -0.1100174, "tags": {"addr:city": "London", "addr:housenumber": "167-169", "addr:postcode": "EC1R 3AL", "addr:street": "Farringdon Road", "amenity": "restaurant", "check_date": "2025-07-21", "contact:facebook": "Great.souvlatzidiko", "contact:instagram": "greatgrillhouse", "contact:twitter": "RealHellas", "cuisine": "barbecue;greek;grill", "name": "GReat Grill House", "opening_hours": "Tu-Th 08:30-23:00; Fr-Sa 09:00-00:00; Su 10:00-23:00; Mo 08:30-16:00", "phone": "+44 7402 656633", "website": "https://www.greatgrillhouse.co.uk/", "wheelchair": "yes"}}, {"type": "node", "id": 12296447201, "lat": 51.5260321, "lon": -0.1085751, "tags": {"amenity": "restaurant", "cuisine": "american", "name": "Gerry's Hot Subs", "opening_hours": "Mo-Sa 12:00-22:00; Su 11:00-20:00", "outdoor_seating": "no", "website": "https://gerryshotsubs.com/", "website:menu": "https://www.gerryshotsubs.com/menu"}}, {"type": "node", "id": 12867023550, "lat": 51.5248464, "lon": -0.1087361, "tags": {"addr:city": "London", "addr:housename": "Finsbury Health Centre", "addr:housenumber": "17", "addr:postcode": "EC1R 0LP", "addr:street": "Pine Street", "alt_name": "The Pine Street Medical Practice", "amenity": "doctors", "healthcare": "doctor", "healthcare:speciality": "general", "name": "Dr John Segarajasinghe", "ref:GB:cqc_location": "1-493866954", "ref:GB:nhs_ods": "F83678"}}, {"type": "node", "id": 12867023551, "lat": 51.5249089, "lon": -0.108881, "tags": {"amenity": "doctors", "healthcare": "doctor", "healthcare:speciality": "general", "name": "Clerkenwell Medical Practice", "ref:GB:cqc_location": "1-581296299", "ref:GB:nhs_ods": "F83624"}}, {"type": "node", "id": 13004395401, "lat": 51.5257823, "lon": -0.1091894, "tags": {"addr:city": "London", "addr:housenumber": "30", "addr:postcode": "EC1R 4QE", "addr:street": "Exmouth Market", "amenity": "cafe", "name": "Doh'hut"}}, {"type": "node", "id": 13015931286, "lat": 51.5256474, "lon": -0.1101759, "tags": {"amenity": "fast_food", "cuisine": "chicken"}}, {"type": "node", "id": 13074169890, "lat": 51.5257723, "lon": -0.1086586, "tags": {"amenity": "bench", "backrest": "yes"}}, {"type": "node", "id": 13074240799, "lat": 51.5258285, "lon": -0.1085114, "tags": {"amenity": "bench", "backrest": "yes"}}, {"type": "node", "id": 13074241942, "lat": 51.5257968, "lon": -0.1085837, "tags": {"amenity": "bench", "backrest": "yes"}}, {"type": "node", "id": 13074247586, "lat": 51.525765, "lon": -0.1086764, "tags": {"amenity": "bench", "backrest": "yes"}}, {"type": "node", "id": 13452861401, "lat": 51.5246619, "lon": -0.1099394, "tags": {"amenity": "restaurant", "name": "Quality Wines", "website": "https://qualitywinesfarringdon.com/"}}, {"type": "way", "id": 45560454, "center": {"lat": 51.5250188, "lon": -0.1079162}, "nodes": [580990260, 1153953201, 1153953182, 580990267, 580990268, 1153953230, 1153953249, 1759002102, 1759002112, 1759002114, 1759002110, 580990287, 580990260], "tags": {"addr:city": "London", "addr:housenumber": "40", "addr:street": "Northampton Street", "amenity": "public_building", "building": "yes", "name": "The London Archives", "operator": "City of London Corporation", "short_name": "TLA", "wikidata": "Q6670589", "wikimedia_commons": "Category:London Metropolitan Archives", "wikipedia": "en:The London Archives"}}, {"type": "way", "id": 45560458, "center": {"lat": 51.5255192, "lon": -0.1091795}, "nodes": [580990252, 1149458650, 1149458947, 580990254, 1149458773, 1149458889, 452453530, 1149459426, 8980429603, 1149459081, 1149459387, 1149459269, 580990252], "tags": {"addr:city": "London", "addr:street": "Exmouth Market", "amenity": "place_of_worship", "building": "church", "denomination": "anglican", "diocese": "Diocese of London (Fulham)", "heritage": "2", "heritage:operator": "he", "heritage:website": "https://historicengland.org.uk/listing/the-list/list-entry/1209007", "listed_status": "Grade II*", "name": "Church of our Most Holy Redeemer", "ref:GB:nhle": "1209007", "religion": "christian", "start_date": "1888", "subdenomination": "anglo_catholic", "website": "https://www.holyredeemerclerkenwell.com/", "wikidata": "Q16896939", "wikimedia_commons": "Category:Church of our Most Holy Redeemer, Islington", "wikipedia": "en:Our Most Holy Redeemer"}}, {"type": "way", "id": 99379732, "center": {"lat": 51.5257637, "lon": -0.1096648}, "nodes": [1149459271, 1149459566, 1149458805, 1149458923, 1149459114, 1149459456, 1149459497, 1149459271], "tags": {"addr:city": "London", "addr:country": "GB", "addr:housenumber": "23", "addr:postcode": "EC1R 4QL", "addr:street": "Exmouth Market", "amenity": "pub", "building": "yes", "building:levels": "3", "check_date": "2025-07-21", "diet:vegan": "yes", "diet:vegetarian": "yes", "email": "info@exmoutharms.com", "fhrs:id": "1453046", "food": "yes", "indoor_seating": "yes", "name": "Exmouth Arms", "outdoor_seating": "yes", "payment:cash": "no", "payment:credit_cards": "yes", "payment:debit_cards": "yes", "phone": "+44 20 3551 4772", "reservation": "yes", "source:addr": "FHRS Open Data", "toilets": "yes", "toilets:access": "customers", "website": "https://www.exmoutharms.com/", "wheelchair": "yes"}}, {"type": "way", "id": 99379741, "center": {"lat": 51.5262407, "lon": -0.1081491}, "nodes": [1149459362, 1149459276, 1149459511, 1149458842, 584514543, 1149459246, 1149459362], "tags": {"addr:city": "London", "addr:housenumber": "64a", "addr:postcode": "EC1R 4QP", "addr:street": "Exmouth Market", "building": "yes", "building:levels": "4", "check_date": "2026-04-16", "name": "Sweet", "opening_hours": "07:00-17:00", "shop": "bakery", "source": "Bing;photographic_survey"}}, {"type": "way", "id": 99379742, "center": {"lat": 51.5260986, "lon": -0.1089559}, "nodes": [1149458981, 1149459278, 1149459512, 1149459202, 1149458981], "tags": {"addr:city": "London", "addr:housenumber": "47", "addr:postcode": "EC1R 4QL", "addr:street": "Exmouth Market", "building": "yes", "building:levels": "4", "name": "La Matiere", "old_name": "Bagman and Robin", "shop": "pottery", "source": "Bing;photographic_survey"}}, {"type": "way", "id": 99379745, "center": {"lat": 51.526043, "lon": -0.1090738}, "nodes": [130118290, 1149459281, 1149459366, 1149459137, 130118290], "tags": {"addr:city": "London", "addr:housenumber": "43", "addr:postcode": "EC1R 4QL", "addr:street": "Exmouth Market", "amenity": "bar", "building": "yes", "building:levels": "3", "fhrs:id": "417327", "name": "Cafe Kick", "source": "Bing;photographic_survey"}}, {"type": "way", "id": 99379749, "center": {"lat": 51.526764, "lon": -0.1089474}, "nodes": [1596927967, 1149459035, 1149459550, 1149459364, 452445965, 1596927967], "tags": {"addr:city": "London", "addr:floor": "0", "addr:housenumber": "8", "addr:postcode": "EC1R 4RQ", "addr:street": "Tysoe Street", "addr:suburb": "Islington", "amenity": "pub", "building": "yes", "building:levels": "4", "check_date": "2025-07-21", "fhrs:id": "416266", "name": "Old China Hand", "outdoor_seating": "yes", "source:addr": "FHRS Open Data", "toilets": "yes", "toilets:access": "customers"}}, {"type": "way", "id": 99379753, "center": {"lat": 51.5260705, "lon": -0.1090141}, "nodes": [1149459278, 1149459137, 1149459366, 1149459512, 1149459278], "tags": {"addr:city": "London", "addr:housenumber": "45", "addr:postcode": "EC1R 4QL", "addr:street": "Exmouth Market", "amenity": "cafe", "building": "yes", "building:levels": "4", "name": "Tabac Caf\u00e9", "old_name": "Barber Streisand", "source": "Bing;photographic_survey", "wheelchair": "no"}}, {"type": "way", "id": 99379764, "center": {"lat": 51.526015, "lon": -0.1091321}, "nodes": [130118290, 1149458952, 1149459170, 1149459281, 130118290], "tags": {"addr:city": "London", "addr:housenumber": "41", "addr:postcode": "EC1R 4QL", "addr:street": "Exmouth Market", "building": "yes", "building:levels": "3", "name": "E.C. One", "shop": "jewelry", "source": "Bing;photographic_survey", "wheelchair": "yes"}}, {"type": "way", "id": 99379776, "center": {"lat": 51.5262815, "lon": -0.108547}, "nodes": [1149459216, 1149459383, 1149459527, 1149458769, 584514546, 1149459216], "tags": {"addr:city": "London", "addr:housenumber": "59-61", "addr:postcode": "EC1R 4QL", "addr:street": "Exmouth Market", "amenity": "restaurant", "building": "yes", "building:levels": "4", "contact:website": "https://santorerestaurant.com", "cuisine": "pizza;pasta;italian", "indoor_seating": "yes", "name": "Santor\u00e8", "opening_hours": "Mo-Th 12:00-22:00; Fr-Sa 12:00-23:00; Su 12:00-22:00", "outdoor_seating": "yes", "outdoor_seating:comfort": "chair", "outdoor_seating:weather_protection": "yes", "payment:american_express": "yes", "payment:mastercard": "yes", "payment:visa": "yes", "phone": "+44 20 7812 1488", "source": "Bing;photographic_survey", "toilets": "yes", "toilets:wheelchair": "no", "wheelchair": "limited"}}, {"type": "way", "id": 99379777, "center": {"lat": 51.525914, "lon": -0.1093327}, "nodes": [1149459519, 1149458828, 1149459006, 1149459287, 1149459540, 1149458873, 1149459519], "tags": {"addr:city": "London", "addr:housenumber": "33-35", "addr:postcode": "EC1R 4QL", "addr:street": "Exmouth Market", "brand": "GAIL's Bakery", "brand:wikidata": "Q110662562", "building": "yes", "building:levels": "4", "check_date": "2026-03-03", "fhrs:id": "417625", "name": "GAIL's", "shop": "bakery", "source": "Bing;photographic_survey", "website": "https://gails.com/pages/exmouth-market"}}, {"type": "way", "id": 99379779, "center": {"lat": 51.5262913, "lon": -0.1080456}, "nodes": [1149459429, 1149458822, 1149459111, 1149459337, 1149459475, 1149458730, 1149459429], "tags": {"addr:city": "London", "addr:postcode": "EC1R 4QP", "addr:street": "Exmouth Market", "building": "yes", "building:levels": "4", "name": "My Eyes", "shop": "optician", "source:addr:postcode": "code-point_open"}}, {"type": "way", "id": 99379782, "center": {"lat": 51.5261261, "lon": -0.1088965}, "nodes": [1149459136, 1149458981, 1149459202, 1149459332, 584514532, 1149459136], "tags": {"addr:city": "London", "addr:housenumber": "49", "addr:postcode": "EC1R 4QL", "addr:street": "Exmouth Market", "amenity": "restaurant", "building": "yes", "building:levels": "4", "cuisine": "vietnamese", "name": "Ph\u00f4 G\u00e0", "old_name": "Bun Cha", "source": "Bing;photographic_survey", "wheelchair": "limited"}}, {"type": "way", "id": 99379789, "center": {"lat": 51.5258458, "lon": -0.1094732}, "nodes": [1149458959, 1149459477, 1149458835, 1149459073, 1149458959], "tags": {"addr:city": "London", "addr:country": "GB", "addr:housenumber": "29", "addr:postcode": "EC1R 4QL", "addr:street": "Exmouth Market", "building": "yes", "building:levels": "3", "name": "Farringdon Locksmith & Tool Supplies Co. Ltd", "phone": "+44 20 7837 5179", "phone2": "+44 20 7278 0224", "shop": "hardware", "source": "Bing;photographic_survey"}}, {"type": "way", "id": 99379796, "center": {"lat": 51.5259707, "lon": -0.1092208}, "nodes": [1149458952, 1149459540, 1149458873, 1149459170, 1149458952], "tags": {"addr:city": "London", "addr:housenumber": "37-39", "addr:postcode": "EC1R 4QL", "addr:street": "Exmouth Market", "amenity": "pub", "brewery": "Mikkeller", "building": "yes", "building:levels": "4", "contact:facebook": "https://www.facebook.com/mikkellerbrewpublondon/", "contact:instagram": "https://www.instagram.com/mikkellerbrewpublondon", "internet_access": "wlan", "microbrewery": "yes", "name": "Mikkeller Brewpub London", "opening_hours": "Mo-Th 12:00-22:30; Fr-Sa 12:00-23:30; Su 12:00-22:00", "source": "Bing;photographic_survey", "website": "https://mikkeller.com/locations/mikkeller-brewpub-london", "wheelchair": "yes"}}, {"type": "way", "id": 99379800, "center": {"lat": 51.5258181, "lon": -0.1095275}, "nodes": [1149458835, 1149458787, 1149458975, 1149459477, 1149458835], "tags": {"addr:city": "London", "addr:housenumber": "27", "addr:postcode": "EC1R 4QL", "addr:street": "Exmouth Market", "amenity": "cafe", "building": "yes", "building:levels": "3", "changing_table": "no", "cuisine": "coffee_shop;Korean", "delivery": "no", "fhrs:id": "1257549", "level": "0", "name": "Be-oom", "outdoor_seating": "yes", "smoking": "outside", "source": "Bing;photographic_survey", "takeaway": "yes", "toilets": "yes", "toilets:access": "customers", "toilets:disposal": "flush", "toilets:position": "seated", "toilets:wheelchair": "no", "wheelchair": "limited"}}, {"type": "way", "id": 99379811, "center": {"lat": 51.527062, "lon": -0.1089877}, "nodes": [1149459603, 584443278, 1149458626, 6067168022, 1149458950, 1149459275, 1149459509, 1149458660, 1149458864, 1149459169, 1149459403, 1149459536, 1149458789, 1149459054, 1149458992, 1149459304, 6067168024, 1149459266, 1149459603], "tags": {"amenity": "place_of_worship", "building": "yes", "building:levels": "2", "denomination": "catholic", "name": "Roman Catholic Church of St Peter & St Paul", "religion": "christian", "service_times": "Su 10:00,12:00", "wikidata": "Q27080284", "wikimedia_commons": "Category:Roman Catholic Church of St Peter and St Paul, Islington"}}, {"type": "way", "id": 99379817, "center": {"lat": 51.5258733, "lon": -0.1094153}, "nodes": [1149458828, 1149458959, 1149459073, 1149459006, 1149458828], "tags": {"addr:city": "London", "addr:country": "GB", "addr:housenumber": "31", "addr:postcode": "EC1R 4QL", "addr:street": "Exmouth Market", "building": "yes", "building:levels": "3", "name": "Botanique Workshop", "opening_hours": "Mo-Sa 10:00-19:30; Su 11:00-17:00", "shop": "florist", "source": "Bing;photographic_survey", "website": "https://botaniqueworkshop.com"}}, {"type": "way", "id": 99813659, "center": {"lat": 51.5259881, "lon": -0.1086199}, "nodes": [1153948525, 1153948451, 1153948492, 1153948514, 1153948496, 1153948464, 1153948525], "tags": {"addr:city": "London", "addr:street": "Exmouth Market", "building": "yes", "name": "Root", "shop": "hairdresser", "source": "Bing;photographic_survey"}}, {"type": "way", "id": 99813660, "center": {"lat": 51.5260933, "lon": -0.1084268}, "nodes": [1153948502, 8006959693, 1153948516, 1153948521, 1153948497, 1153948487, 1153948502], "tags": {"addr:city": "London", "addr:housenumber": "56", "addr:street": "Exmouth Market", "building": "yes", "building:levels": "4", "name": "Mc Caul", "shop": "jewelry"}}, {"type": "way", "id": 99813665, "center": {"lat": 51.5257244, "lon": -0.1091571}, "nodes": [1153948498, 1153948482, 1153948458, 1153948523, 1153948484, 1153948494, 1153948520, 1153948500, 1153948488, 1153948498], "tags": {"addr:city": "London", "addr:street": "Exmouth Market", "building": "yes", "name": "The Klinik", "shop": "hairdresser", "source": "Bing;photographic_survey"}}, {"type": "way", "id": 99813666, "center": {"lat": 51.5259428, "lon": -0.108757}, "nodes": [1609307466, 1609307467, 1609307469, 1153948477, 1153948510, 1153948529, 1609307471, 1609307466], "tags": {"addr:city": "London", "addr:country": "GB", "addr:housenumber": "44", "addr:street": "Exmouth Market", "building": "yes", "name": "Rima's Food & Wine", "shop": "convenience", "source": "Bing;photographic_survey"}}, {"type": "way", "id": 99813668, "center": {"lat": 51.526106, "lon": -0.1083523}, "nodes": [1153948450, 1153948486, 1153948465, 1153948527, 1153948507, 1153948487, 1153948502, 1153948479, 1153948450], "tags": {"addr:city": "London", "addr:country": "GB", "addr:housenumber": "58", "addr:street": "Exmouth Market", "building": "yes", "building:levels": "4", "name": "The Family Business", "shop": "tattoo"}}, {"type": "way", "id": 99813670, "center": {"lat": 51.5258362, "lon": -0.1090009}, "nodes": [130118289, 1153948476, 1153948448, 1153948478, 130118289], "tags": {"addr:city": "London", "addr:country": "GB", "addr:housenumber": "34-36", "addr:postcode": "EC1R 4QE", "addr:street": "Exmouth Market", "amenity": "restaurant", "building": "yes", "fhrs:id": "416220", "name": "Moro", "source": "Bing;photographic_survey", "source:addr": "FHRS Open Data"}}, {"type": "way", "id": 99813671, "center": {"lat": 51.5257964, "lon": -0.1090823}, "nodes": [1153948476, 1153948524, 1153948503, 1153948448, 1153948476], "tags": {"addr:city": "London", "addr:country": "GB", "addr:housenumber": "32", "addr:street": "Exmouth Market", "amenity": "restaurant", "building": "yes", "check_date": "2024-07-14", "diet:vegetarian": "yes", "indoor_seating": "yes", "name": "Morito", "payment:credit_cards": "yes", "payment:debit_cards": "yes", "phone": "+44 20 7833 8336", "source": "Bing;photographic_survey", "website": "https://www.morito.co.uk"}}, {"type": "way", "id": 99813673, "center": {"lat": 51.5258848, "lon": -0.108845}, "nodes": [1153948501, 1153948467, 1153948475, 1153948528, 1153948509, 1153948491, 1153948501], "tags": {"addr:city": "London", "addr:country": "GB", "addr:housenumber": "38-40", "addr:postcode": "EC1R 4QE", "addr:street": "Exmouth Market", "amenity": "restaurant", "building": "yes", "cuisine": "italian", "fhrs:id": "893248", "name": "Macellaio", "source": "Bing;photographic_survey", "source:addr": "FHRS Open Data"}}, {"type": "way", "id": 99813674, "center": {"lat": 51.5259825, "lon": -0.1087088}, "nodes": [1153948451, 1153948469, 1153948529, 1153948510, 1153948492, 1153948451], "tags": {"addr:city": "London", "addr:housenumber": "46", "addr:postcode": "EC1R 4QE", "addr:street": "Exmouth Market", "amenity": "restaurant", "building": "yes", "contact:instagram": "https://www.instagram.com/berberandq", "cuisine": "kebab", "email": "reservations@berberandq.com", "fhrs:id": "908585", "name": "Berber & Q Shawarma Bar", "opening_hours": "We-Sa 18:00-23:00", "phone": "+44 20 7923 0829", "website": "https://www.berberandq.com/"}}, {"type": "way", "id": 99813676, "center": {"lat": 51.5260607, "lon": -0.1085035}, "nodes": [1153948516, 1153948481, 1153948453, 1609307472, 1609307473, 1153948521, 1153948516], "tags": {"addr:city": "London", "addr:housenumber": "52-54", "addr:postcode": "EC1R 4QE", "addr:street": "Exmouth Market", "amenity": "restaurant", "bar": "yes", "building": "yes", "building:levels": "3", "check_date": "2022-08-09", "cuisine": "japanese", "diet:vegan": "yes", "diet:vegetarian": "yes", "email": "info@necco.co.uk", "fhrs:id": "417601", "indoor_seating": "yes", "name": "N\u00e9cco", "outdoor_seating": "yes", "payment:credit_cards": "yes", "payment:debit_cards": "yes", "phone": "+44 20 7713 8575", "source": "Bing;photographic_survey", "website": "http://necco.co.uk/"}}, {"type": "way", "id": 99813922, "center": {"lat": 51.5243438, "lon": -0.1081924}, "nodes": [580990221, 1153953176, 9788823532, 457901462, 1153953239, 4101157080, 9026734582, 1153953220, 580990221], "tags": {"addr:city": "London", "addr:housenumber": "28-32", "addr:street": "Bowling Green Lane", "amenity": "pub", "building": "yes", "building:levels": "2", "check_date": "2023-02-10", "diet:vegan": "yes", "diet:vegetarian": "yes", "food": "yes", "indoor_seating": "yes", "name": "The Marian Anderson", "opening_hours": "Mo-Sa 12:00-23:00; Su 12:00-20:00", "outdoor_seating": "yes", "payment:credit_cards": "yes", "payment:debit_cards": "yes", "toilets": "yes", "toilets:access": "customers", "wheelchair": "no"}}, {"type": "way", "id": 99813923, "center": {"lat": 51.5255456, "lon": -0.1073605}, "nodes": [1153953221, 915687601, 1153953185, 1153953167, 1153953214, 1153953197, 1153953240, 1153953221], "tags": {"addr:city": "London", "addr:housenumber": "42", "addr:postcode": "EC1R 0HU", "addr:street": "Northampton Road", "amenity": "restaurant", "building": "yes", "check_date": "2023-02-10", "cuisine": "regional", "indoor_seating": "yes", "name": "Bourne & Hollingsworth Buildings", "outdoor_seating": "yes", "payment:credit_cards": "yes", "payment:debit_cards": "yes", "website": "https://www.bandhbuildings.com/"}}, {"type": "way", "id": 100181890, "center": {"lat": 51.5244437, "lon": -0.1092721}, "nodes": [1157966018, 1157966043, 1157966048, 1157966652, 1157966655, 1157966609, 1157966018], "tags": {"amenity": "parking", "source": "Bing"}}, {"type": "way", "id": 100190637, "center": {"lat": 51.5264461, "lon": -0.1097326}, "nodes": [1158091566, 6228614219, 1158091573, 1158091578, 1158091583, 1158091566], "tags": {"amenity": "parking", "parking": "surface", "source": "Bing"}}, {"type": "way", "id": 146418633, "center": {"lat": 51.5253045, "lon": -0.1107043}, "nodes": [1596927833, 1596927827, 4384563691, 1596927825, 1596927831, 1596927851, 1596927833], "tags": {"amenity": "cafe", "building": "yes", "building:levels": "1", "check_date": "2025-07-15", "indoor_seating": "yes", "name": "Cafe Maya", "outdoor_seating": "yes", "source": "Bing;photographic_survey"}}, {"type": "way", "id": 146418635, "center": {"lat": 51.525386, "lon": -0.1106205}, "nodes": [1596927855, 1596927853, 1596927856, 1596927857, 1596927855], "tags": {"building": "yes", "building:levels": "1", "shop": "bicycle", "source": "photographic_survey"}}, {"type": "way", "id": 146418646, "center": {"lat": 51.525831, "lon": -0.1104027}, "nodes": [584439155, 584433958, 1596927911, 1596927915, 1596927931, 584439155], "tags": {"addr:city": "London", "addr:housenumber": "59-61", "addr:street": "Rosebery Avenue", "amenity": "fast_food", "building": "yes", "building:levels": "1", "cuisine": "burger", "source": "Bing;photographic_survey"}}, {"type": "way", "id": 146418652, "center": {"lat": 51.5257985, "lon": -0.1104451}, "nodes": [1596927890, 584433958, 1596927911, 857400975, 1596927892, 1596927890], "tags": {"addr:city": "London", "addr:housenumber": "55-57", "addr:street": "Rosebery Avenue", "amenity": "cafe", "building": "yes", "building:levels": "1", "check_date": "2025-07-21", "contact:instagram": "devotion_coffee", "cuisine": "coffee_shop", "fhrs:id": "1665701", "indoor_seating": "yes", "name": "Devotion", "source": "Bing;photographic_survey"}}, {"type": "way", "id": 146418653, "center": {"lat": 51.5258721, "lon": -0.1103434}, "nodes": [584439157, 584439155, 1596927931, 1732440496, 1596927935, 584439157], "tags": {"addr:city": "London", "addr:housenumber": "63-65", "addr:postcode": "EC1R 4SD", "addr:street": "Rosebery Avenue", "addr:suburb": "Islington", "amenity": "fast_food", "building": "yes", "building:levels": "1", "check_date": "2025-07-21", "cuisine": "kebab", "fhrs:id": "653898", "name": "Rosebery Kebab", "note": "Rosebery Kebab & ...ouse (sign obscured by tree on photo)", "source:addr": "FHRS Open Data"}}, {"type": "way", "id": 146418657, "center": {"lat": 51.5259171, "lon": -0.1102733}, "nodes": [584439157, 584439152, 1596927939, 1596927940, 1596927935, 584439157], "tags": {"addr:city": "London", "addr:housenumber": "67", "addr:postcode": "EC1R 4SD", "addr:street": "Rosebery Avenue", "addr:suburb": "Islington", "building": "yes", "building:levels": "4", "check_date": "2025-07-21", "fhrs:id": "416704", "name": "Sadler's News", "shop": "convenience", "source": "Bing;photographic_survey", "source:addr": "FHRS Open Data"}}, {"type": "way", "id": 146418658, "center": {"lat": 51.5257198, "lon": -0.1104874}, "nodes": [1596927886, 1596927879, 1596927877, 1596927881, 1596927890, 1596927892, 1596927886], "tags": {"addr:city": "London", "addr:country": "GB", "addr:housenumber": "49-53", "addr:street": "Rosebery Avenue", "building": "yes", "building:levels": "1", "check_date": "2025-07-15", "hairdresser": "barber", "name": "Barber Streisand", "shop": "hairdresser", "source": "Bing;photographic_survey"}}, {"type": "way", "id": 147734598, "center": {"lat": 51.525926, "lon": -0.1087974}, "nodes": [1609307466, 1609307471, 1153948501, 1153948491, 1609307468, 1609307465, 1609307466], "tags": {"addr:city": "London", "addr:street": "Exmouth Market", "building": "yes", "name": "Anand News", "shop": "newsagent", "source": "Bing;photographic_survey"}}, {"type": "way", "id": 147734602, "center": {"lat": 51.5253109, "lon": -0.1098683}, "nodes": [1609307452, 576981455, 1609307455, 484618786, 1609307452], "tags": {"addr:city": "London", "addr:housenumber": "12", "addr:postcode": "EC1R 4QE", "addr:street": "Exmouth Market", "addr:suburb": "Islington", "amenity": "cafe", "brand": "Caff\u00e8 Nero", "brand:wikidata": "Q675808", "brand:wikipedia": "en:Caff\u00e8 Nero", "check_date": "2024-08-22", "check_date:opening_hours": "2024-08-22", "cuisine": "coffee_shop", "fhrs:id": "416450", "level": "0", "name": "Caff\u00e8 Nero", "opening_hours": "Mo-Fr 07:00-19:00; Sa-Su 08:00-17:00", "source:addr": "FHRS Open Data", "takeaway": "yes", "website": "https://www.caffenero.com/uk/stores/exmouth-market"}}, {"type": "way", "id": 147734603, "center": {"lat": 51.5250629, "lon": -0.1102766}, "nodes": [6230644492, 1609307443, 1609307448, 581005282, 581005281, 1149459118, 6230644492], "tags": {"amenity": "bar", "building": "yes", "building:levels": "4", "source": "Bing;photographic_survey"}}, {"type": "way", "id": 147734606, "center": {"lat": 51.5250218, "lon": -0.1102984}, "nodes": [1609307443, 1149459491, 581005276, 6230644493, 1149459343, 1609307448, 1609307443], "tags": {"addr:city": "London", "addr:housenumber": "2", "addr:postcode": "EC1R 4PX", "addr:street": "Exmouth Market", "addr:suburb": "Islington", "amenity": "pub", "building": "yes", "building:levels": "4", "fhrs:id": "1665703", "food": "yes", "indoor_seating": "yes", "name": "The Clerkenwell Tavern", "opening_hours": "Mo-Tu 12:00-23:00; We 12:00-24:00; Th-Sa 12:00-01:00; Su 12:00-23:00", "outdoor_seating": "yes", "phone": "+44 20 8161 0439", "source": "Bing;photographic_survey", "source:addr": "FHRS Open Data", "website": "https://theclerkenwelltavern.co.uk/", "wheelchair": "no"}}, {"type": "way", "id": 147734607, "center": {"lat": 51.5253924, "lon": -0.1097417}, "nodes": [1609307454, 581389912, 1609307457, 1609307456, 1609307454], "tags": {"addr:city": "London", "addr:housenumber": "16", "addr:postcode": "EC1R 4QE", "addr:street": "Exmouth Market", "amenity": "pharmacy", "brand": "Rowlands Pharmacy", "brand:wikidata": "Q62663235", "dispensing": "yes", "healthcare": "pharmacy", "level": "0", "name": "Rowlands Pharmacy"}}, {"type": "way", "id": 147734612, "center": {"lat": 51.5251779, "lon": -0.1101029}, "nodes": [1609307446, 1609307450, 1609307451, 581005287, 581005280, 1609307446], "tags": {"addr:city": "London", "addr:housenumber": "8-10", "addr:postcode": "EC1R 4QA", "addr:street": "Exmouth Market", "addr:suburb": "Islington", "amenity": "restaurant", "cuisine": "mexican", "fhrs:id": "1408999", "indoor_seating": "yes", "level": "0", "name": "Taqueria", "outdoor_seating": "yes", "source:addr": "FHRS Open Data", "website": "https://taqueria.co.uk/exmouth/", "wheelchair": "yes"}}, {"type": "way", "id": 147734618, "center": {"lat": 51.5251104, "lon": -0.1102296}, "nodes": [1609307447, 1609307449, 581005282, 581005281, 1609307447], "tags": {"amenity": "restaurant", "check_date": "2025-07-21", "indoor_seating": "yes", "level": "0", "name": "Anilo's Kitchen", "outdoor_seating": "yes", "wheelchair": "no"}}, {"type": "way", "id": 147734626, "center": {"lat": 51.5254342, "lon": -0.1096791}, "nodes": [581389912, 584514531, 1609307460, 1609307457, 581389912], "tags": {"addr:city": "London", "addr:housenumber": "18", "addr:postcode": "EC1R 4QE", "addr:street": "Exmouth Market", "level": "0", "name": "Plant Designs", "shop": "garden_centre", "website": "https://shop.plantdesigns.co.uk/"}}, {"type": "way", "id": 147734631, "center": {"lat": 51.5253529, "lon": -0.1098059}, "nodes": [576981455, 1609307454, 1609307456, 1609307455, 576981455], "tags": {"addr:city": "London", "addr:housenumber": "14", "addr:postcode": "EC1R 4QE", "addr:street": "Exmouth Market", "addr:suburb": "Islington", "amenity": "restaurant", "cuisine": "indian", "fhrs:id": "417801", "level": "0", "name": "Cinnamon Tree", "phone": "+44 20 7837 6000", "phone2": "+44 20 7837 6013", "source:addr": "FHRS Open Data"}}, {"type": "way", "id": 155341956, "center": {"lat": 51.5237006, "lon": -0.1091304}, "nodes": [1677474777, 1677474809, 1139831053, 1139831834, 1139830342, 1677474777], "tags": {"addr:city": "London", "addr:housenumber": "143-145", "addr:street": "Farringdon Road", "email": "sales@spacestor.com", "level": "0", "name": "Spacestor", "phone": "+44 20 8997 7899", "service:bicycle:retail": "yes", "shop": "furniture", "website": "http://spacestor.uk.com"}}, {"type": "way", "id": 155341960, "center": {"lat": 51.5239035, "lon": -0.1094996}, "nodes": [4182837647, 4182837646, 1677474897, 1139831348, 1139831548, 1139830219, 4182837647], "tags": {"addr:city": "London", "addr:housenumber": "155", "addr:postcode": "EC1R 3AD", "addr:street": "Farringdon Road", "email": "info@clerkenwell-london.com", "level": "0", "name": "Clerkenwell London", "phone": "+44 20 3826 1142", "shop": "design", "source": "survey", "website": "https://clerkenwell-london.com/"}}, {"type": "way", "id": 155341971, "center": {"lat": 51.524138, "lon": -0.1097433}, "nodes": [1677475083, 452433535, 1677475080, 1677475061, 1677475052, 1677475060, 1677475072, 1677475083], "tags": {"addr:city": "London", "addr:housenumber": "159", "addr:street": "Farringdon Road", "amenity": "pub", "building": "yes", "building:levels": "3", "check_date": "2026-04-07", "dog": "yes", "food": "yes", "indoor_seating": "yes", "name": "The Eagle", "outdoor_seating": "yes", "payment:credit_cards": "yes", "payment:debit_cards": "yes", "phone": "+44 20 7837 1353", "reservation": "yes", "source": "Bing;survey", "source:toilets": "unknown (copied from replaced node)", "toilets": "yes", "toilets:access": "customers", "website": "https://theeaglefarringdon.co.uk/", "wheelchair": "no"}}, {"type": "way", "id": 155341978, "center": {"lat": 51.524315, "lon": -0.1077084}, "nodes": [1677475152, 1677475153, 1677475147, 1677475119, 1677475152], "tags": {"amenity": "cafe", "building": "yes", "name": "The Grubberie", "source": "Bing"}}, {"type": "way", "id": 155341979, "center": {"lat": 51.524289, "lon": -0.1077721}, "nodes": [1677475150, 1677475152, 1677475119, 1677475113, 1677475150], "tags": {"addr:city": "London", "addr:housenumber": "13", "addr:street": "Bowling Green Lane", "amenity": "fast_food", "building": "yes", "check_date": "2022-11-22", "cuisine": "korean", "fhrs:id": "1131952", "indoor_seating": "yes", "name": "Bento Bab", "opening_hours": "Mo-Sa 11:00-20:00; Su off", "outdoor_seating": "no", "payment:credit_cards": "yes", "payment:debit_cards": "yes", "source": "Bing"}}, {"type": "way", "id": 155363856, "center": {"lat": 51.523877, "lon": -0.1067774}, "nodes": [1677679749, 1677679746, 1677679747, 1677679750, 1677679753, 1677679749], "tags": {"addr:city": "London", "addr:country": "GB", "addr:housenumber": "24", "addr:postcode": "EC1R 0AT", "addr:street": "Clerkenwell Close", "amenity": "pub", "building": "yes", "contact:facebook": "thehorseshoeclerkenwell", "name": "Horseshoe", "opening_hours": "Mo-Fr 12:00-23:00", "outdoor_seating": "yes", "source": "Bing;photographic_survey", "sport": "darts"}}, {"type": "way", "id": 155363901, "center": {"lat": 51.5239032, "lon": -0.1066932}, "nodes": [1677679754, 1677679752, 1677679751, 1677679750, 1677679747, 530258272, 1677679754], "tags": {"building": "yes", "note": "Has no name sign", "shop": "convenience", "source": "Bing;photographic_survey"}}, {"type": "way", "id": 185672801, "center": {"lat": 51.5263293, "lon": -0.1079423}, "nodes": [1963299042, 1149458895, 584514539, 1149459429, 1149458730, 1963299013, 6635225272, 1963299042], "tags": {"addr:city": "London", "addr:country": "GB", "addr:housenumber": "70", "addr:street": "Rosoman Street", "amenity": "restaurant", "building": "yes", "building:levels": "4", "check_date": "2023-02-10", "name": "Coin Laundry", "opening_hours": "Tu off", "outdoor_seating": "yes", "payment:credit_cards": "yes", "payment:debit_cards": "yes", "source": "survey", "wheelchair": "no"}}, {"type": "way", "id": 189889500, "center": {"lat": 51.5257675, "lon": -0.1092021}, "nodes": [2004988073, 2004988079, 2004988074, 2004988076, 2004988078, 2004988080, 484618785, 2004988072, 2004988075, 2004988073], "tags": {"amenity": "marketplace", "name": "Exmouth Market", "source": "Local knowledge", "wikidata": "Q5420461", "wikimedia_commons": "Category:Exmouth Market", "wikipedia": "en:Exmouth Market"}}, {"type": "way", "id": 294403102, "center": {"lat": 51.5252633, "lon": -0.1067734}, "nodes": [2980030504, 844758336, 3966585856, 915687665, 844758351, 2980030504], "tags": {"addr:city": "London", "addr:housename": "Three Corners Centre", "addr:postcode": "EC1R 0HU", "addr:street": "Northampton Road", "amenity": "community_centre", "building": "community_centre", "name": "3 Corners Centre", "website": "https://www.peelinstitute.org.uk/hall-3-corners"}}, {"type": "way", "id": 393465286, "center": {"lat": 51.5252024, "lon": -0.1067276}, "nodes": [844758336, 2980030504, 3966585855, 3966585856, 844758336], "tags": {"addr:city": "London", "addr:country": "GB", "addr:housename": "Three Corners Centre", "addr:postcode": "EC1R 0HU", "addr:street": "Northampton Road", "amenity": "school", "name": "Dania School", "ref:edubase": "139973"}}, {"type": "way", "id": 665469557, "center": {"lat": 51.5261368, "lon": -0.1101095}, "nodes": [1596927944, 1596927958, 1596927960, 6228614214, 6228614213, 1149458748, 584439167, 1596927941, 1596927944], "tags": {"addr:city": "London", "addr:country": "GB", "addr:housenumber": "69", "addr:postcode": "EC1R 4RL", "addr:street": "Rosebery Avenue", "addr:suburb": "Islington", "amenity": "pub", "building": "yes", "indoor_seating": "yes", "name": "The Wilmington", "outdoor_seating": "yes", "source:addr": "FHRS Open Data"}}, {"type": "way", "id": 975450834, "center": {"lat": 51.5247068, "lon": -0.1081319}, "nodes": [1153953201, 580990260, 9026734571, 9026734570, 9026734569, 9026734568, 1153953201], "tags": {"access": "private", "amenity": "parking"}}, {"type": "way", "id": 975450840, "center": {"lat": 51.524596, "lon": -0.105739}, "nodes": [9026734608, 530980547, 530980546, 530980495, 9026734607, 9026734606, 9026734605, 9026734604, 9026734608], "tags": {"access": "private", "amenity": "parking"}}, {"type": "way", "id": 1368149790, "center": {"lat": 51.5247575, "lon": -0.1121653}, "nodes": [12670617406, 317316886, 13843142802, 13843142804, 317316877, 317316878, 893428824, 1508429545, 317316879, 1508429555, 2191947377, 317316881, 12670617404, 12407007669, 12407007668, 12407007667, 12407007666, 12407007665, 12670617406], "tags": {"alt_name": "Mount Pleasant Mail Centre", "amenity": "post_depot", "landuse": "commercial", "name": "London Central Mail Centre", "operator": "Royal Mail", "operator:type": "private", "operator:wikidata": "Q638098", "wikidata": "Q7374422", "wikimedia_commons": "Category:Royal Mail Mount Pleasant Sorting Office", "wikipedia": "en:Mount Pleasant Mail Centre"}}]}