{"version": 0.6, "generator": "Overpass API 0.7.62.11 87bfad18", "osm3s": {"timestamp_osm_base": "2026-06-10T16:26:19Z", "copyright": "The data included in this document is from www.openstreetmap.org. The data is made available under ODbL."}, "elements": [{"type": "node", "id": 264905093, "lat": 51.5202617, "lon": -0.1457868, "tags": {"amenity": "car_sharing", "capacity": "1", "operator": "Streetcar", "source": "WebSite"}}, {"type": "node", "id": 577179222, "lat": 51.5180391, "lon": -0.1442108, "tags": {"amenity": "post_box", "brand": "Royal Mail", "brand:wikidata": "Q638098", "brand:wikipedia": "en:Royal Mail", "check_date:collection_times": "2025-08-22", "collection_times": "Mo-Fr 16:00; Sa 10:30", "note": "apertures marked \"stamped\" and \"franked\"", "operator": "Royal Mail", "operator:wikidata": "Q638098", "post_box:apertures": "2", "post_box:design": "type_c", "post_box:type": "pillar", "ref": "W1B 30;W1B 230", "royal_cypher": "EIIR", "royal_cypher:wikidata": "Q33102113", "source": "survey"}}, {"type": "node", "id": 577179375, "lat": 51.519985, "lon": -0.1446494, "tags": {"amenity": "post_box", "collection_times": "Mo-Fr 09:00; Sa 07:00", "drive_through": "no", "post_box:apertures": "2", "post_box:design": "type_c", "post_box:type": "pillar", "ref": "W1B 37;W1B 237", "royal_cypher": "EIIR", "royal_cypher:wikidata": "Q33102113"}}, {"type": "node", "id": 839403852, "lat": 51.5181111, "lon": -0.1441398, "tags": {"amenity": "bicycle_rental", "bicycle_rental": "docking_station", "brand": "Santander Cycles", "brand:wikidata": "Q807961", "capacity": "18", "check_date": "2024-01-12", "historic:ref": "CH23002", "local": "Marylebone", "name": "Broadcasting House", "network": "tfl_cycle_hire", "official_name": "Broadcasting House, Marylebone", "official_ref": "6", "operator": "Serco", "operator:type": "private", "operator:wikidata": "Q499104"}}, {"type": "node", "id": 1234819837, "lat": 51.5190188, "lon": -0.1487649, "tags": {"amenity": "post_box", "brand": "Royal Mail", "brand:wikidata": "Q638098", "brand:wikipedia": "en:Royal Mail", "check_date:collection_times": "2023-11-23", "collection_times": "Mo-Fr 09:00; Sa 07:00", "operator": "Royal Mail", "operator:wikidata": "Q638098", "post_box:apertures": "2", "post_box:design": "type_c", "post_box:type": "pillar", "ref": "W1G 33D;W1G 233D", "royal_cypher": "EIIR", "royal_cypher:wikidata": "Q33102113", "source": "survey"}}, {"type": "node", "id": 1234819842, "lat": 51.5194276, "lon": -0.1462311, "tags": {"amenity": "post_box", "brand": "Royal Mail", "brand:wikidata": "Q638098", "brand:wikipedia": "en:Royal Mail", "check_date:collection_times": "2023-11-23", "collection_times": "Mo-Fr 09:00; Sa 07:00", "operator": "Royal Mail", "operator:wikidata": "Q638098", "post_box:apertures": "2", "post_box:type": "pillar", "ref": "W1G 31D;W1G 231D", "royal_cypher": "EIIR", "royal_cypher:wikidata": "Q33102113", "source": "survey"}}, {"type": "node", "id": 1345283879, "lat": 51.5197, "lon": -0.1450564, "tags": {"amenity": "bicycle_parking", "bicycle_parking": "stands", "capacity": "4", "check_date:capacity": "2024-04-18", "covered": "no"}}, {"type": "node", "id": 1724521404, "lat": 51.5191793, "lon": -0.1477369, "tags": {"amenity": "bicycle_rental", "bicycle_rental": "docking_station", "brand": "Santander Cycles", "brand:wikidata": "Q807961", "capacity": "18", "local": "Marylebone", "name": "New Cavendish Street", "network": "tfl_cycle_hire", "official_name": "New Cavendish Street, Marylebone", "official_ref": "581", "operator": "Serco", "source": "survey"}}, {"type": "node", "id": 2209033698, "lat": 51.5182675, "lon": -0.1460871, "tags": {"amenity": "post_box", "brand": "Royal Mail", "brand:wikidata": "Q638098", "brand:wikipedia": "en:Royal Mail", "check_date:collection_times": "2023-01-24", "collection_times": "Mo-Fr 18:30", "mail:meter": "yes", "mail:stamped": "no", "operator": "Royal Mail", "operator:wikidata": "Q638098", "post_box:type": "meter", "ref": "W1G 121P", "royal_cypher": "EIIR", "royal_cypher:wikidata": "Q33102113", "source": "survey"}}, {"type": "node", "id": 2209146344, "lat": 51.5203518, "lon": -0.1458141, "tags": {"access": "yes", "amenity": "parking", "fee": "yes", "layer": "-1", "operator": "NCP", "operator:type": "private", "parking": "underground"}}, {"type": "node", "id": 3251034480, "lat": 51.5181808, "lon": -0.1460434, "tags": {"amenity": "post_box", "brand": "Royal Mail", "brand:wikidata": "Q638098", "brand:wikipedia": "en:Royal Mail", "check_date:collection_times": "2023-01-24", "collection_times": "Mo-Fr 18:30; Sa 12:00", "note": "apertures marked stamped and franked", "operator": "Royal Mail", "operator:wikidata": "Q638098", "post_box:apertures": "2", "post_box:design": "type_c", "post_box:type": "pillar", "ref": "W1G 32;W1G 232", "royal_cypher": "EIIR", "royal_cypher:wikidata": "Q33102113", "source": "survey"}}, {"type": "node", "id": 3516406605, "lat": 51.518765, "lon": -0.1442848, "tags": {"addr:city": "London", "addr:country": "GB", "amenity": "motorcycle_parking", "capacity": "20", "covered": "no", "fee": "yes", "parking": "surface"}}, {"type": "node", "id": 3563383993, "lat": 51.518347, "lon": -0.1481528, "tags": {"addr:city": "London", "addr:housenumber": "20", "addr:postcode": "W1G 8GF", "addr:street": "Wimpole Street", "amenity": "dentist", "emergency": "yes", "healthcare": "dentist", "name": "Wimpole Dental", "note": "Opening Hours: Every Monday to Friday 9:00 AM to 6:00 PM", "operator": "Wimpole Dental", "phone": "+44 20 7380 1025", "website": "https://wimpoledental.co.uk/"}}, {"type": "node", "id": 3906862978, "lat": 51.5190765, "lon": -0.1489568, "tags": {"addr:city": "London", "addr:country": "GB", "amenity": "motorcycle_parking", "capacity": "7", "covered": "no", "fee": "yes"}}, {"type": "node", "id": 3906862981, "lat": 51.5195914, "lon": -0.1471931, "tags": {"addr:city": "London", "addr:country": "GB", "amenity": "motorcycle_parking", "capacity": "5", "covered": "no", "fee": "yes"}}, {"type": "node", "id": 3906862983, "lat": 51.5199561, "lon": -0.1474762, "tags": {"addr:city": "London", "addr:country": "GB", "amenity": "motorcycle_parking", "capacity": "4", "covered": "no", "fee": "yes"}}, {"type": "node", "id": 3906990555, "lat": 51.5189656, "lon": -0.1445138, "tags": {"addr:city": "London", "addr:country": "GB", "amenity": "motorcycle_parking", "capacity": "4", "covered": "no", "fee": "yes"}}, {"type": "node", "id": 3906992857, "lat": 51.519535, "lon": -0.1447807, "tags": {"addr:city": "London", "addr:country": "GB", "amenity": "motorcycle_parking", "capacity": "8", "covered": "no", "fee": "yes"}}, {"type": "node", "id": 4562409395, "lat": 51.5196242, "lon": -0.1461833, "tags": {"amenity": "arts_centre", "check_date": "2024-04-18", "name": "Asia House", "wikidata": "Q4806373"}}, {"type": "node", "id": 4917825401, "lat": 51.5191703, "lon": -0.1487639, "tags": {"amenity": "bicycle_parking", "bicycle_parking": "stands", "capacity": "4", "covered": "no"}}, {"type": "node", "id": 5513714992, "lat": 51.5184907, "lon": -0.1435527, "tags": {"addr:city": "London", "addr:street": "World Piazza", "air_conditioning": "yes", "amenity": "cafe", "brand": "Caff\u00e8 Nero", "brand:wikidata": "Q675808", "brand:wikipedia": "en:Caff\u00e8 Nero", "check_date": "2025-10-29", "cuisine": "coffee_shop", "diet:vegan": "yes", "diet:vegetarian": "yes", "indoor_seating": "yes", "internet_access": "wlan", "internet_access:fee": "no", "name": "Caff\u00e8 Nero", "opening_hours": "Mo-Fr 06:30-19:00; Sa 07:00-18:00", "operator": "Caff\u00e8 Nero", "outdoor_seating": "yes", "smoking": "outside", "takeaway": "yes", "toilets": "yes", "toilets:wheelchair": "yes", "website": "https://www.caffenero.com/uk/stores/bbc-world-cafe", "wheelchair": "yes"}}, {"type": "node", "id": 6202912806, "lat": 51.517045, "lon": -0.1459128, "tags": {"addr:city": "London", "addr:housenumber": "2", "addr:street": "Harley Street", "amenity": "clinic", "check_date": "2023-05-31", "healthcare": "clinic", "healthcare:speciality": "cosmetic", "name": "sk:n Clinics", "website": "https://www.sknclinics.co.uk/clinics/london/london-harley-street"}}, {"type": "node", "id": 6202912807, "lat": 51.5169799, "lon": -0.1458071, "tags": {"addr:city": "London", "addr:housenumber": "16", "addr:street": "Cavendish Square", "amenity": "restaurant", "check_date": "2023-05-31", "cuisine": "french", "name": "Les 110 de Taillevent", "website": "https://www.les-110-taillevent-london.com/"}}, {"type": "node", "id": 6239275279, "lat": 51.5178982, "lon": -0.1457217, "tags": {"amenity": "parking", "layer": "-1", "operator": "Q-Park Harley Street", "parking": "underground"}}, {"type": "node", "id": 6239289327, "lat": 51.5181349, "lon": -0.1458811, "tags": {"addr:city": "London", "addr:housenumber": "13", "addr:postcode": "W1G 9JH", "addr:street": "Queen Anne Street", "amenity": "clinic", "healthcare": "clinic", "healthcare:speciality": "dermatology;gynaecology", "name": "Harley Street Health Centre", "opening_hours": "Mo-Fr 09:00-18:30"}}, {"type": "node", "id": 6273524242, "lat": 51.5182882, "lon": -0.1463007, "tags": {"amenity": "doctors", "healthcare": "doctor"}}, {"type": "node", "id": 6273702324, "lat": 51.5184205, "lon": -0.1465407, "tags": {"amenity": "doctors", "healthcare": "doctor"}}, {"type": "node", "id": 6282151737, "lat": 51.5173858, "lon": -0.1476518, "tags": {"addr:city": "London", "addr:housenumber": "11-12", "addr:street": "Wimpole Street", "amenity": "dentist", "healthcare": "dentist", "name": "Lister House Endodontic and Restorative Dental Centre", "ref:GB:cqc_location": "1-197183321", "website": "https://www.oasisdentalcare.co.uk/platinum/lister-house-dental/"}}, {"type": "node", "id": 6282173448, "lat": 51.5178637, "lon": -0.1475367, "tags": {"addr:city": "London", "addr:housenumber": "31", "addr:street": "Queen Anne Street", "amenity": "dentist", "healthcare": "dentist", "name": "Chris Parte Family Dental Care", "ref:GB:cqc_location": "1-209638582", "website": "http://www.chrisparte.com/"}}, {"type": "node", "id": 6294957593, "lat": 51.5175086, "lon": -0.1481149, "tags": {"amenity": "clinic", "healthcare": "clinic", "healthcare:speciality": "gynaecology", "name": "Queensway Gynaecology Clinic"}}, {"type": "node", "id": 6294957594, "lat": 51.5174803, "lon": -0.1480988, "tags": {"amenity": "clinic", "healthcare": "clinic", "name": "The Harley Street Hair Clinic", "ref:GB:cqc_location": "1-2711073209"}}, {"type": "node", "id": 6529957818, "lat": 51.5195672, "lon": -0.1447254, "tags": {"amenity": "bicycle_parking", "bicycle_parking": "stands", "capacity": "6", "covered": "no"}}, {"type": "node", "id": 6996410287, "lat": 51.5187096, "lon": -0.1441112, "tags": {"amenity": "bicycle_parking", "bicycle_parking": "stands", "capacity": "4", "note": "Two Cyclehoops attached to nearby lampposts."}}, {"type": "node", "id": 8116370671, "lat": 51.5185919, "lon": -0.1462041, "tags": {"access": "private", "amenity": "parking", "capacity": "3", "layer": "-1", "parking": "underground"}}, {"type": "node", "id": 8455210154, "lat": 51.5171004, "lon": -0.1462544, "tags": {"addr:city": "London", "addr:housenumber": "9", "addr:postcode": "W1G 9QY", "addr:street": "Harley Street", "amenity": "doctors", "healthcare": "clinic", "healthcare:speciality": "otolaryngology;plastic_surgery", "name": "David Whitehead ENT", "opening_hours": "Mo-Fr 09:00-18:00", "phone": "+44 20 7183 0220"}}, {"type": "node", "id": 9682975117, "lat": 51.5179499, "lon": -0.1462913, "tags": {"addr:city": "London", "addr:housenumber": "22", "addr:street": "Harley Street", "amenity": "dentist", "healthcare": "dentist", "name": "NDU Clinic"}}, {"type": "node", "id": 9698442342, "lat": 51.5193864, "lon": -0.1440742, "tags": {"addr:city": "London", "addr:housenumber": "24", "addr:postcode": "W1B 1LU", "addr:street": "Portland Place", "amenity": "clinic", "check_date": "2025-01-14", "healthcare": "clinic", "name": "Cleveland Clinic London", "phone": "+44 20 3423 7500", "website": "https://clevelandcliniclondon.uk/patients/appointments"}}, {"type": "node", "id": 10267762634, "lat": 51.5192373, "lon": -0.1447798, "tags": {"amenity": "bicycle_parking", "bicycle_parking": "stands", "capacity": "10", "covered": "no", "ref:GB:tflcid": "RWG057582"}}, {"type": "node", "id": 10267762638, "lat": 51.519892, "lon": -0.1442543, "tags": {"amenity": "bicycle_parking", "bicycle_parking": "post_hoop", "capacity": "2", "covered": "no", "ref:GB:tflcid": "RWG058084"}}, {"type": "node", "id": 10280261609, "lat": 51.5179508, "lon": -0.1482014, "tags": {"amenity": "bicycle_parking", "bicycle_parking": "stands", "capacity": "4", "covered": "no", "ref:GB:tflcid": "RWG058067"}}, {"type": "node", "id": 10280261610, "lat": 51.5177428, "lon": -0.1479819, "tags": {"amenity": "bicycle_parking", "bicycle_parking": "stands", "capacity": "2", "covered": "no", "ref:GB:tflcid": "RWG058065"}}, {"type": "node", "id": 10280261611, "lat": 51.5177766, "lon": -0.1480135, "tags": {"amenity": "bicycle_parking", "bicycle_parking": "stands", "capacity": "10", "covered": "no", "ref:GB:tflcid": "RWG058066"}}, {"type": "node", "id": 10613311567, "lat": 51.5178117, "lon": -0.1460981, "tags": {"addr:city": "London", "addr:housenumber": "22A", "addr:postcode": "W1G 9BP", "addr:street": "Harley Street", "amenity": "doctors", "email": "info@eyesat22a.com", "healthcare": "doctor", "healthcare:speciality": "ophthalmology", "name": "The Harley Street Eye Centre", "opening_hours": "Mo-Fr 10:00-19:00", "phone": "+44 20 3375 2200", "website": "https://www.eyesat22a.com/"}}, {"type": "node", "id": 11101466122, "lat": 51.5169413, "lon": -0.1469202, "tags": {"access": "yes", "amenity": "bicycle_parking", "bicycle_parking": "stands", "capacity": "10", "covered": "no", "fee": "no"}}, {"type": "node", "id": 11101466123, "lat": 51.5172839, "lon": -0.1454409, "tags": {"amenity": "bicycle_parking", "bicycle_parking": "stands", "capacity": "15"}}, {"type": "node", "id": 11101466127, "lat": 51.517915, "lon": -0.1455999, "tags": {"amenity": "bicycle_parking", "capacity": "4", "level": "1", "location": "underground"}}, {"type": "node", "id": 12272937745, "lat": 51.5171613, "lon": -0.1459563, "tags": {"addr:city": "London", "addr:housenumber": "4", "addr:postcode": "W1G 9PB", "addr:street": "Harley Street", "amenity": "clinic", "healthcare": "clinic", "name": "The Hale Clinic", "operator": "DRSH Ltd", "ref:GB:cqc_location": "1-20393810646", "website": "https://www.haleclinic.com/"}}, {"type": "node", "id": 12334619556, "lat": 51.5170362, "lon": -0.1465553, "tags": {"addr:city": "London", "addr:housenumber": "9", "addr:postcode": "W1G 9QY", "addr:street": "Harley Street", "amenity": "doctors", "contact:instagram": "https://www.instagram.com/spinemdt/", "contact:linkedin": "https://www.linkedin.com/company/the-spine-mdt/", "description": "Spinal Specialist Anthony Ghosh and the Spine MDT Provide World-Class Spine Care at Their Harley Street Clinic. If you are seeking comprehensive spinal care and exceptional services, contact spinal specialist Anthony Ghosh and his team at Spine MDT.", "email": "info@SpineMDT.com", "facebook": "https://www.facebook.com/SpineMDT", "healthcare": "doctor", "healthcare:speciality": "neurosurgery", "name": "The Spine MDT", "opening_hours": "Mo-Fr 08:00-18:00", "payment:bank_transfer": "yes", "payment:credit_cards": "yes", "phone": "+44 20 8088 1222", "twitter": "https://x.com/spinemdt", "website": "https://www.spinemdt.com/london-clinic/", "youtube": "https://www.youtube.com/@SpineMDT"}}, {"type": "node", "id": 12593428326, "lat": 51.5175389, "lon": -0.1481263, "tags": {"amenity": "clinic", "healthcare": "clinic", "name": "The Doctors Laboratory", "ref:GB:cqc_location": "1-2166893538"}}, {"type": "node", "id": 12670102919, "lat": 51.5190103, "lon": -0.1443091, "tags": {"access": "yes", "amenity": "bicycle_parking", "bicycle_parking": "post_hoop", "capacity": "1", "covered": "no", "fee": "no"}}, {"type": "node", "id": 12899819655, "lat": 51.5187515, "lon": -0.1439848, "tags": {"addr:city": "London", "addr:housename": "Broadcasting House", "addr:street": "Portland Place", "amenity": "cafe", "check_date": "2025-06-09", "indoor_seating": "yes", "name": "BBC Club", "outdoor_seating": "no", "payment:apple_pay": "yes", "payment:cash": "no", "payment:contactless": "yes", "payment:credit_cards": "yes", "payment:debit_cards": "yes", "payment:google_pay": "yes", "wheelchair": "yes"}}, {"type": "node", "id": 13055402390, "lat": 51.5171766, "lon": -0.1459544, "tags": {"addr:city": "London", "addr:housenumber": "4", "addr:postcode": "W1G 9PB", "addr:street": "Harley Street", "air_conditioning": "yes", "alt_name": "Dr Robert", "amenity": "clinic", "check_date": "2025-08-07", "email": "info@drrobert.london", "healthcare": "clinic", "healthcare:speciality": "dermatology", "level": "0", "name": "Doctor Robert", "note": "Signage confirms", "operator": "Kidderpore Ltd", "operator:type": "private_for_profit", "website": "www.drrobert.london", "wheelchair": "yes"}}, {"type": "way", "id": 131724838, "center": {"lat": 51.5188702, "lon": -0.1491129}, "nodes": [1449430305, 1261522523, 1261522443, 1261522531, 1261522316, 1449430306, 1449430305], "tags": {"addr:city": "London", "addr:housename": "New Cavendish Mansions", "addr:housenumber": "50", "addr:postcode": "W1G 8TG", "addr:street": "New Cavendish Street", "amenity": "doctors", "building": "residential", "building:colour": "#B52222", "building:levels": "4", "building:material": "brick", "healthcare": "doctor", "name": "London Claremont Clinic", "roof:levels": "1"}}, {"type": "way", "id": 147997976, "center": {"lat": 51.5200699, "lon": -0.1461846}, "nodes": [1611082192, 330803160, 1611082197, 1611082195, 1611082194, 6270734168, 1611082170, 1611082192], "tags": {"addr:city": "London", "addr:housenumber": "43", "addr:postcode": "W1G 7EQ", "addr:street": "Weymouth Mews", "amenity": "pub", "building": "yes", "building:colour": "white", "building:levels": "2", "check_date": "2023-05-31", "fhrs:confidence_management": "10", "fhrs:hygiene": "5", "fhrs:id": "414330", "fhrs:local_authority_id": "01611/0043/0/001", "fhrs:rating": "3", "fhrs:structural": "10", "name": "The Jackalope", "operator": "Samuel Smith's Brewery", "source": "Bing;survey", "source:addr": "FSA Food Hygiene Ratings Database", "source:postcode": "FSA Food Hygiene Ratings Database", "website": "https://jackalopelondon.com/#firstPage"}}, {"type": "way", "id": 320405549, "center": {"lat": 51.5201117, "lon": -0.1443728}, "nodes": [3269190850, 3269190849, 6187336831, 3269190851, 3269190852, 6187336829, 3269190850], "tags": {"addr:city": "London", "addr:housenumber": "38", "addr:postcode": "W1B 1LS", "addr:street": "Portland Place", "amenity": "school", "building": "school", "name": "Abercorn School (prep)", "website": "https://www.abercornschool.com/422/prep/welcome-to-portland-place"}}, {"type": "way", "id": 364348784, "center": {"lat": 51.5168546, "lon": -0.146682}, "nodes": [3683860915, 3683862012, 3683861931, 3683861977, 6273727106, 3683860915], "tags": {"addr:city": "London", "addr:housenumber": "10", "addr:street": "Wigmore Street", "amenity": "restaurant", "building": "yes", "cuisine": "italian", "indoor_seating": "yes", "name": "2 Veneti", "outdoor_seating": "yes", "website": "https://www.2veneti.com/"}}, {"type": "way", "id": 661385064, "center": {"lat": 51.5200253, "lon": -0.1444248}, "nodes": [3269190851, 6187335281, 6187336788, 6187336830, 6187336831, 3269190851], "tags": {"addr:city": "London", "addr:housenumber": "36", "addr:street": "Portland Place", "amenity": "school", "building": "school", "name": "EIFA International School", "ref:edubase": "139239", "website": "https://eifaschool.com/"}}, {"type": "way", "id": 669627097, "center": {"lat": 51.520103, "lon": -0.147136}, "nodes": [6270785985, 6270785986, 6270734147, 6270734144, 6270785985], "tags": {"addr:city": "London", "addr:housenumber": "78", "addr:street": "Harley Street", "amenity": "clinic", "building": "yes", "healthcare": "clinic", "name": "Harley Street Centre for Women", "ref:GB:cqc_location": "1-1088923354", "website": "https://www.hscfw.co.uk/", "wikidata": "Q17550588"}}, {"type": "way", "id": 669875308, "center": {"lat": 51.5194747, "lon": -0.1456315}, "nodes": [6273433129, 6273450286, 6273450287, 6273433132, 6273433129], "tags": {"addr:city": "London", "addr:housenumber": "22", "addr:postcode": "W1G 9DT", "addr:street": "Duchess Mews", "amenity": "arts_centre", "building": "yes", "name": "Cavendish Conference Centre", "ref:GB:uprn": "100023466233", "website": "https://www.cavendishvenues.co.uk/west-end-conference-venues/"}}, {"type": "way", "id": 669882382, "center": {"lat": 51.5186684, "lon": -0.1464769}, "nodes": [6273524230, 6273524243, 6273524244, 6273524253, 6273524236, 6273524229, 6273524230], "tags": {"addr:city": "London", "addr:country": "GB", "addr:housename": "Priv\u00e9 Clinics", "addr:housenumber": "40", "addr:postcode": "W1G 9PP", "addr:street": "Harley Street", "amenity": "hospital", "building": "yes", "building:levels": "5", "description": "Welcome to Priv\u00e9 Clinics, where we believe you deserve nothing but the best. Your health is our priority. We are a sanctuary where a team of practitioners come together to provide you with dental and medical services in a calm and welcoming environment.", "healthcare": "hospital", "name": "Priv\u00e9 Clinics", "ref:GB:uprn": "10033652092", "website": "https://priveclinics.com/"}}, {"type": "way", "id": 669890680, "center": {"lat": 51.5189785, "lon": -0.1467452}, "nodes": [6273608655, 6273608657, 6273608658, 6273608656, 6273608655], "tags": {"addr:city": "London", "addr:housenumber": "50", "addr:postcode": "W1G 9PX", "addr:street": "Harley Street", "amenity": "doctors", "building": "yes", "building:levels": "4", "healthcare": "doctor", "name": "Doctors Surgery", "ref:GB:uprn": "10033556770;100023465953;10033536122;10033536123;10033536124"}}, {"type": "way", "id": 669899574, "center": {"lat": 51.517415, "lon": -0.1459188}, "nodes": [6273702332, 6273702333, 6273702337, 6273702334, 6202833386, 6273702331, 6273702332], "tags": {"addr:city": "London", "addr:housenumber": "10", "addr:postcode": "W1G 9PF", "addr:street": "Harley Street", "amenity": "clinic", "building": "yes", "contact:email": "info@capitalhairrestoration.co.uk", "contact:phone": "+44 20 8088 2393", "healthcare": "clinic", "healthcare:speciality": "plastic_surgery", "name": "Capital Hair Restoration", "service": "fue hair transplant", "source": "Hair Transplant;Fue Hair Transplant;FUT Hair Transplant;Hair transplant London", "website": "https://www.capitalhairrestoration.co.uk/"}}, {"type": "way", "id": 670141394, "center": {"lat": 51.517331, "lon": -0.1465574}, "nodes": [6275720368, 6275720374, 6275720375, 6275720376, 6275720377, 6275720378, 6275720379, 6275720373, 6275720372, 6275720369, 6275720368], "tags": {"addr:city": "London", "addr:housenumber": "17", "addr:postcode": "W1G 9QH", "addr:street": "Harley Street", "amenity": "clinic", "building": "yes", "healthcare": "clinic", "name": "UME Health Harley Street", "ref:GB:cqc_location": "1-9224101166", "ref:GB:uprn": "10033571290;10033571291;100023465902;10033574967", "website": "https://umehealth.co.uk/"}}, {"type": "way", "id": 670141398, "center": {"lat": 51.5176524, "lon": -0.1467063}, "nodes": [6275722691, 6275722692, 6275722693, 6275722699, 6275722688, 6275722691], "tags": {"addr:city": "London", "addr:housenumber": "25", "addr:postcode": "W1G 9QW", "addr:street": "Harley Street", "amenity": "clinic", "building": "yes", "check_date": "2024-09-23", "healthcare": "clinic", "name": "25 Harley Street", "ref:GB:cqc_location": "1-5785093007", "ref:GB:uprn": "100023465982;10033571296", "website": "https://www.25harleystreet.co.uk/"}}, {"type": "way", "id": 670141404, "center": {"lat": 51.5178954, "lon": -0.1467364}, "nodes": [6275722701, 6275722703, 2209033662, 2209033665, 2209033670, 6275722702, 6275722701], "tags": {"addr:city": "London", "addr:housenumber": "33", "addr:postcode": "W1G 9QT", "addr:street": "Harley Street", "amenity": "dentist", "building": "yes", "healthcare": "dentist", "name": "Dr Ashok Sethi", "ref:GB:cqc_location": "1-2542488836", "ref:GB:uprn": "10091859066;10033647695;100023465463;10033647696"}}, {"type": "way", "id": 670848153, "center": {"lat": 51.5182104, "lon": -0.1470993}, "nodes": [6277779549, 6282212787, 6282212788, 6282212789, 6277779578, 6277779562, 6277779563, 6277779564, 6282212790, 6277779549], "tags": {"addr:city": "London", "addr:housenumber": "18-22", "addr:street": "Queen Anne Street", "amenity": "hospital", "building": "yes", "healthcare": "hospital", "name": "Queen Anne Street Medical Centre", "ref:GB:cqc_location": "1-19458919324", "website": "https://qasmc.com/"}}, {"type": "way", "id": 670859290, "center": {"lat": 51.5183616, "lon": -0.1480402}, "nodes": [6282292063, 6282292069, 6282292070, 6282292071, 6282292072, 6282292064, 6282292063], "tags": {"addr:city": "London", "addr:housename": "19 Wimpole Street Dental Practice", "addr:housenumber": "19", "addr:postcode": "W1G 8GE", "addr:street": "Wimpole Street", "amenity": "dentist", "building": "yes", "healthcare": "dentist", "healthcare:speciality": "dentistry;orthodontics", "name": "19 Wimpole Street Dental Practice"}}, {"type": "way", "id": 672219101, "center": {"lat": 51.5177243, "lon": -0.1482807}, "nodes": [6294915112, 6294915113, 6294915114, 6294915115, 6294915116, 6294915117, 6294915118, 6294915119, 6294915120, 6294915121, 6294915112], "tags": {"addr:city": "London", "addr:housenumber": "39", "addr:postcode": "W1G 9AZ", "addr:street": "Queen Anne Street", "amenity": "hospital", "building": "yes", "healthcare": "hospital", "name": "Nuffield Health", "operator": "Nuffield Health", "operator:type": "private", "operator:wikidata": "Q7068711", "ref:GB:uprn": "100023465428", "website": "https://www.nuffieldhealth.com/clinics/london-west-end-medical-centre"}}, {"type": "way", "id": 1116893227, "center": {"lat": 51.517886, "lon": -0.1462108}, "nodes": [10214707703, 10214707704, 10214707705, 10214707706, 10214707703], "tags": {"addr:city": "London", "addr:housename": "Harmont House, 20 W1G 9PH,", "addr:street": "Harley Street", "amenity": "clinic", "building": "yes", "healthcare": "clinic", "healthcare:speciality": "skincare;health;beauty", "name": "Dermanda Clinic", "opening_hours": "Mo-Sa 10:00-06:00", "phone": "+44 20 7637 8320", "website": "https://dermandaclinic.co.uk/"}}]}