{"version": 0.6, "generator": "Overpass API 0.7.62.11 87bfad18", "osm3s": {"timestamp_osm_base": "2026-06-10T16:33:30Z", "copyright": "The data included in this document is from www.openstreetmap.org. The data is made available under ODbL."}, "elements": [{"type": "node", "id": 452412638, "lat": 51.5055984, "lon": -0.1509367, "tags": {"amenity": "telephone", "booth": "K6", "colour": "black", "covered": "booth"}}, {"type": "node", "id": 540705964, "lat": 51.5038718, "lon": -0.149046, "tags": {"addr:city": "London", "addr:country": "GB", "addr:housenumber": "150", "addr:postcode": "W1K 1QZ", "addr:street": "Old Park Lane", "amenity": "restaurant", "brand": "Hard Rock Cafe", "brand:wikidata": "Q918151", "brand:wikipedia": "en:Hard Rock Cafe", "brewery": "Beck's", "check_date": "2026-03-04", "cuisine": "american", "email": "London_reception@hardrock.com", "fhrs:confidence_management": "5", "fhrs:hygiene": "0", "fhrs:id": "412551", "fhrs:local_authority_id": "00861/0150/0/000", "fhrs:rating": "5", "fhrs:structural": "0", "name": "Hard Rock Cafe", "opening_hours": "Mo-Th 11:30-00:30; Fr 11:30-01:00; Sa 11:00-01:00; Su 11:30-22:30", "phone": "+44 20 7514 1700", "source:postcode": "FSA Food Hygiene Ratings Database", "toilets": "yes", "toilets:wheelchair": "yes", "website": "https://cafe.hardrock.com/london/", "wheelchair": "yes"}}, {"type": "node", "id": 623251044, "lat": 51.5054899, "lon": -0.1487651, "tags": {"addr:city": "London", "addr:housenumber": "17", "addr:postcode": "W1J 7RS", "addr:street": "Hertford Street", "amenity": "restaurant", "brand": "Prezzo", "brand:wikidata": "Q7242489", "brand:wikipedia": "en:Prezzo (restaurant)", "cuisine": "italian", "fhrs:confidence_management": "5", "fhrs:hygiene": "0", "fhrs:id": "427846", "fhrs:local_authority_id": "00601/0017/0/001", "fhrs:rating": "4", "fhrs:structural": "10", "fixme": "Is this still here? (can't find a branch web page)", "name": "Prezzo", "phone": "+44 20 7499 4690", "source:addr": "FSA Food Hygiene Ratings Database", "source:postcode": "FSA Food Hygiene Ratings Database"}}, {"type": "node", "id": 623253352, "lat": 51.5046789, "lon": -0.1479203, "tags": {"addr:city": "London", "addr:housenumber": "24", "addr:street": "Down Street", "name": "Mayfair Mini Market", "shop": "convenience"}}, {"type": "node", "id": 623254505, "lat": 51.5045279, "lon": -0.1476784, "tags": {"amenity": "post_box", "collection_times": "Mo-Fr 18:30; Sa 12:00", "operator": "Royal Mail", "operator:wikidata": "Q638098", "post_box:apertures": "2", "post_box:design": "type_c", "post_box:type": "pillar", "ref": "W1J 67D;W1J 267D", "royal_cypher": "EIIR", "royal_cypher:wikidata": "Q33102113", "source": "survey"}}, {"type": "node", "id": 623255790, "lat": 51.5039278, "lon": -0.1486922, "tags": {"amenity": "telephone", "booth": "K6", "check_date": "2024-10-29", "covered": "booth"}}, {"type": "node", "id": 623257813, "lat": 51.5036547, "lon": -0.1496163, "tags": {"amenity": "post_box", "brand": "Royal Mail", "brand:wikidata": "Q638098", "brand:wikipedia": "en:Royal Mail", "collection_times": "Mo-Fr 18:30; Sa 12:00", "note": "Apertures marked \"Stamped\" and \"Franked\". Only one aperture had acollection info and ref.", "operator": "Royal Mail", "operator:wikidata": "Q638098", "post_box:apertures": "2", "post_box:design": "type_c", "post_box:type": "pillar", "ref": "W1J 66D;W1J 266D", "royal_cypher": "EIIR", "royal_cypher:wikidata": "Q33102113", "source": "survey", "source:position": "survey by GNSS RTK"}}, {"type": "node", "id": 623258429, "lat": 51.503599, "lon": -0.149425, "tags": {"amenity": "bicycle_parking", "bicycle_parking": "stands", "capacity": "12", "covered": "no", "description": "Cap 12"}}, {"type": "node", "id": 734893874, "lat": 51.5049814, "lon": -0.1510925, "tags": {"amenity": "parking_entrance"}}, {"type": "node", "id": 850057427, "lat": 51.5028735, "lon": -0.1495409, "tags": {"amenity": "bicycle_rental", "bicycle_rental": "docking_station", "brand": "Santander Cycles", "brand:wikidata": "Q807961", "capacity": "34", "historic:ref": "CH28028", "local": "Hyde Park", "name": "Wellington Arch", "network": "tfl_cycle_hire", "official_name": "Wellington Arch, Hyde Park", "official_ref": "213", "operator": "Serco", "operator:type": "private", "operator:wikidata": "Q499104", "start_date": "2010-07-30"}}, {"type": "node", "id": 2388907662, "lat": 51.5046506, "lon": -0.1471955, "tags": {"amenity": "telephone", "booth": "K6", "check_date": "2024-09-16", "covered": "booth"}}, {"type": "node", "id": 2388917813, "lat": 51.5046415, "lon": -0.1473443, "tags": {"amenity": "bench", "backrest": "yes"}}, {"type": "node", "id": 2388917815, "lat": 51.5046048, "lon": -0.1474221, "tags": {"amenity": "bench", "backrest": "yes"}}, {"type": "node", "id": 2388963321, "lat": 51.5048352, "lon": -0.1468092, "tags": {"amenity": "telephone", "booth": "K6", "check_date": "2024-09-16", "covered": "booth"}}, {"type": "node", "id": 2388963323, "lat": 51.5049412, "lon": -0.1465893, "tags": {"amenity": "bicycle_parking", "bicycle_parking": "stands", "capacity": "18", "check_date": "2025-06-12", "covered": "no", "fee": "no"}}, {"type": "node", "id": 2505219833, "lat": 51.5039373, "lon": -0.1488253, "tags": {"addr:city": "London", "addr:housenumber": "1", "addr:street": "Old Park Lane", "check_date": "2025-06-18", "name": "Hard Rock Cafe shop", "opening_hours": "Mo-Sa 09:30-23:30; Su 09:30-23:00", "shop": "gift", "website": "https://rockshop.hardrock.com/"}}, {"type": "node", "id": 2581331174, "lat": 51.5051031, "lon": -0.1481717, "tags": {"addr:city": "London", "addr:housenumber": "5", "addr:postcode": "W1J 7AQ", "addr:street": "Down Street", "amenity": "restaurant", "cuisine": "spanish", "name": "El Pirata", "website": "https://www.elpirata.co.uk/"}}, {"type": "node", "id": 3624986738, "lat": 51.5053995, "lon": -0.1508027, "tags": {"amenity": "bicycle_rental", "bicycle_rental": "docking_station", "brand": "Santander Cycles", "brand:wikidata": "Q807961", "capacity": "18", "local": "Mayfair", "name": "Park Lane", "network": "tfl_cycle_hire", "official_name": "Park Lane, Mayfair", "official_ref": "733", "operator": "Serco", "operator:type": "private", "operator:wikidata": "Q499104"}}, {"type": "node", "id": 4980165338, "lat": 51.5031964, "lon": -0.1506275, "tags": {"amenity": "bench", "backrest": "yes", "source": "gps+mapnoter"}}, {"type": "node", "id": 4980165339, "lat": 51.5032031, "lon": -0.1508152, "tags": {"amenity": "bench", "backrest": "yes", "source": "gps+mapnoter"}}, {"type": "node", "id": 5200394264, "lat": 51.5059217, "lon": -0.1492155, "tags": {"amenity": "motorcycle_parking", "name": "Motocycle parking"}}, {"type": "node", "id": 5956148839, "lat": 51.5053765, "lon": -0.1471095, "tags": {"access": "yes", "amenity": "parking", "parking": "garage_boxes"}}, {"type": "node", "id": 5960715927, "lat": 51.5044212, "lon": -0.1478277, "tags": {"addr:city": "London", "addr:housenumber": "118", "addr:street": "Piccadilly", "amenity": "restaurant", "cuisine": "peruvian", "name": "Landmark", "phone": "+44 20 7042 7118", "website": "https://www.coyarestaurant.com/london-mayfair/"}}, {"type": "node", "id": 5963443750, "lat": 51.5047367, "lon": -0.1494946, "tags": {"amenity": "bar", "name": "The Tale Bar", "website": "https://www.thetalebar.co.uk/"}}, {"type": "node", "id": 5963443751, "lat": 51.5046276, "lon": -0.1494008, "tags": {"amenity": "casino", "name": "Playboy Club London", "website": "https://www.playboyclublondon.com/"}}, {"type": "node", "id": 5968022760, "lat": 51.5052453, "lon": -0.14968, "tags": {"addr:city": "London", "addr:housenumber": "24", "addr:street": "Hertford Street", "amenity": "casino", "name": "Casino Colony Club", "website": "https://www.thecolonyclub.co.uk/"}}, {"type": "node", "id": 5968022761, "lat": 51.5051193, "lon": -0.1501366, "tags": {"amenity": "restaurant", "brand": "Nobu", "brand:wikidata": "Q104840749", "cuisine": "sushi", "name": "Nobu"}}, {"type": "node", "id": 5970915399, "lat": 51.5055369, "lon": -0.1501387, "tags": {"addr:city": "London", "addr:housenumber": "22", "addr:postcode": "W1K 1BE", "addr:street": "Park Lane", "amenity": "restaurant", "bar": "yes", "cuisine": "french;fine_dining", "email": "reservations@galvinatwindows.com", "facebook": "https://www.facebook.com/GalvinatWindows", "instagram": "http://instagram.com/galvinatwindows", "level": "28", "name": "Galvin at Windows", "opening_hours": "Mo-We 12:00-14:30,17:30-22:00; Th-Fr 12:00-14:30,17:30-22:30; Sa 11:45-14:30,17:30-22:30; Su closed", "phone": "+44 20 7208 4021", "start_date": "May 2006", "twitter": "https://twitter.com/GalvinatWindows", "website": "https://www.galvinatwindows.com/", "wheelchair": "yes", "wikidata": "Q5519439"}}, {"type": "node", "id": 5970915400, "lat": 51.5053432, "lon": -0.1503426, "tags": {"addr:city": "London", "addr:housenumber": "22", "addr:street": "Park Lane", "name": "Moussaieff Jewellers", "shop": "jewelry", "website": "https://www.moussaieff-jewellers.com/"}}, {"type": "node", "id": 5970915401, "lat": 51.505278, "lon": -0.1502871, "tags": {"clothes": "men", "name": "The Park Lane Collection", "shop": "clothes"}}, {"type": "node", "id": 5970976399, "lat": 51.5045477, "lon": -0.1501139, "tags": {"addr:city": "London", "addr:street": "Hamilton Place", "amenity": "restaurant", "cuisine": "italian", "name": "Amaranto"}}, {"type": "node", "id": 6746990787, "lat": 51.5028788, "lon": -0.149092, "tags": {"amenity": "bench", "backrest": "yes"}}, {"type": "node", "id": 6747001688, "lat": 51.5028231, "lon": -0.1490443, "tags": {"amenity": "bench", "backrest": "yes"}}, {"type": "node", "id": 6762088797, "lat": 51.5038494, "lon": -0.1476616, "tags": {"amenity": "bench", "backrest": "yes"}}, {"type": "node", "id": 8075284358, "lat": 51.5049134, "lon": -0.1493527, "tags": {"amenity": "bicycle_parking", "capacity": "6"}}, {"type": "node", "id": 8421658421, "lat": 51.5039337, "lon": -0.148676, "tags": {"amenity": "telephone", "booth": "K6", "check_date": "2025-06-18", "covered": "booth"}}, {"type": "node", "id": 8592766884, "lat": 51.5055152, "lon": -0.1508817, "tags": {"amenity": "telephone", "booth": "K6", "covered": "booth"}}, {"type": "node", "id": 10280285626, "lat": 51.5048646, "lon": -0.1505615, "tags": {"amenity": "bicycle_parking", "bicycle_parking": "stands", "capacity": "10", "ref:GB:tflcid": "RWG056863"}}, {"type": "node", "id": 10280288939, "lat": 51.5054199, "lon": -0.1506861, "tags": {"amenity": "bicycle_parking", "bicycle_parking": "stands", "capacity": "14", "ref:GB:tflcid": "RWG056875"}}, {"type": "node", "id": 10280288942, "lat": 51.5034336, "lon": -0.1499023, "tags": {"amenity": "bicycle_parking", "bicycle_parking": "stands", "capacity": "8", "covered": "no", "ref:GB:tflcid": "RWG056866"}}, {"type": "node", "id": 11307567087, "lat": 51.5053906, "lon": -0.1501652, "tags": {"addr:city": "London", "addr:housenumber": "22", "addr:postcode": "W1K 1BE", "addr:street": "Park Lane", "amenity": "restaurant", "cuisine": "brasserie;british_restaurant;tea_house", "name": "Park Corner Brasserie", "opening_hours": "Mo-Su 06:30-22:00", "phone": "+44 20 7208 4127", "website": "https://www.parkcornerbrasserie.com/"}}, {"type": "node", "id": 11309104133, "lat": 51.5053604, "lon": -0.1501542, "tags": {"addr:city": "London", "addr:housenumber": "22", "addr:postcode": "W1K 1BE", "addr:street": "Park Lane", "amenity": "bar", "name": "Revery Bar", "opening_hours": "Mo-We,Su 08:00-00:00; Th-Fr 08:00-01:00; Sa 08:00-02:00", "website": "https://www.reverybarparklane.com/"}}, {"type": "node", "id": 12245034601, "lat": 51.5049144, "lon": -0.1469544, "tags": {"amenity": "bar", "name": "Smith & Whistle Bar & Terrace"}}, {"type": "node", "id": 12344348288, "lat": 51.5060228, "lon": -0.1478405, "tags": {"addr:city": "London", "addr:housenumber": "49", "addr:street": "Hertford Street", "brand": "Snappy Snaps", "brand:wikidata": "Q7547351", "name": "Snappy Snaps", "shop": "photo", "website": "https://www.snappysnaps.co.uk/mayfair"}}, {"type": "node", "id": 12765655162, "lat": 51.5055235, "lon": -0.1502309, "tags": {"addr:city": "London", "addr:housenumber": "22", "addr:postcode": "W1K 1BE", "addr:street": "Park Lane", "amenity": "restaurant", "cuisine": "fine_dining", "name": "MR PORTER Steakhouse, Bar & Lounge London", "website": "https://www.mrportersteakhouse.com/london"}}, {"type": "node", "id": 13254887541, "lat": 51.5039294, "lon": -0.1502827, "tags": {"addr:city": "London", "addr:housenumber": "1", "addr:postcode": "W1J 7QY", "addr:street": "Hamilton Place", "air_conditioning": "yes", "amenity": "restaurant", "bar": "yes", "check_date": "2025-10-24", "cuisine": "italian", "delivery": "no", "internet_access": "wlan", "internet_access:fee": "customers", "microbrewery": "no", "name": "Theo Randall", "payment:apple_pay": "yes", "payment:cash": "yes", "payment:contactless": "yes", "payment:credit_cards": "yes", "payment:debit_cards": "yes", "payment:google_pay": "yes", "phone": "+44 20 7318 8747", "reservation": "yes", "smoking": "no", "takeaway": "no", "toilets": "yes", "toilets:wheelchair": "yes", "website": "https://www.theorandall.com/", "wheelchair": "yes"}}, {"type": "way", "id": 59265297, "center": {"lat": 51.5050756, "lon": -0.1514296}, "nodes": [734893872, 734894095, 734893869, 9919059953, 734894089, 734893874, 734894083, 734894076, 734893862, 734894098, 734893872], "tags": {"access": "yes", "amenity": "parking", "capacity": "304", "covered": "yes", "fee": "yes", "layer": "-1", "maxheight": "1.9", "name": "The Mayfair Car Park", "parking": "underground"}}, {"type": "way", "id": 230385417, "center": {"lat": 51.504761, "lon": -0.1472235}, "nodes": [2388948365, 2388948366, 2388948367, 2388948368, 2388948365], "tags": {"addr:city": "London", "addr:housename": "The Park Lane Hotel", "addr:housenumber": "112", "addr:postcode": "W1J 7BX", "addr:street": "Piccadilly", "amenity": "restaurant", "check_date": "2025-06-18", "cuisine": "italian", "name": "Mercante"}}, {"type": "way", "id": 230385548, "center": {"lat": 51.5047439, "lon": -0.1474364}, "nodes": [2388951246, 2388951248, 2388951250, 2014553947, 2388951246], "tags": {"addr:city": "London", "addr:housename": "The Athenaeum Hotel", "addr:housenumber": "116", "addr:postcode": "W1J 7BJ", "addr:street": "Piccadilly", "amenity": "bar", "name": "The Whisky Bar", "note": "Access via reception", "operator": "The Athenaeum Hotel", "wheelchair": "yes"}}, {"type": "way", "id": 236942548, "center": {"lat": 51.5057198, "lon": -0.1468115}, "nodes": [2343070939, 2455809192, 5949338526, 5949338527, 2449030814, 5947995993, 5947995994, 5947995995, 5947995996, 5947995992, 2449030815, 5947995990, 5947995991, 5947995989, 5947995988, 5954782435, 5954782434, 2455808576, 2449030810, 2449030807, 2449030813, 2449030812, 2449030811, 2449030808, 2449030809, 5938937296, 5938937299, 5938937301, 5938937303, 5938937305, 2343070940, 2343070939], "tags": {"access": "yes", "addr:city": "London", "addr:postcode": "W1J 7AF", "amenity": "parking", "building": "yes", "name": "Carrington Street Car Park", "parking": "surface", "ref:GB:uprn": "10033571426"}}, {"type": "way", "id": 237697402, "center": {"lat": 51.5051463, "lon": -0.1467951}, "nodes": [2014553972, 2455807561, 5960624287, 5960624288, 5960624290, 5960624289, 2014553968, 2014553959, 2014553960, 2014553957, 2014553972], "tags": {"addr:city": "London", "addr:housenumber": "106", "addr:postcode": "W1J 7NL", "addr:street": "Piccadilly", "amenity": "school", "building": "school", "education": "school", "heritage": "2", "heritage:operator": "he", "heritage:website": "https://historicengland.org.uk/listing/the-list/list-entry/1226811", "listed_status": "Grade I", "name": "Eaton Square Upper School", "ref:GB:nhle": "1226811", "ref:GB:uprn": "100023472979;10033582718;10033570892", "ref:edubase": "144795", "wikidata": "Q33690270", "wikipedia": "en:Eaton Square School"}}, {"type": "way", "id": 309458013, "center": {"lat": 51.5054108, "lon": -0.1506397}, "nodes": [3147915665, 3147915666, 3147915664, 3147915662, 3147915660, 3147915655, 3147915654, 3147915658, 3147915661, 3147915663, 3147915665], "tags": {"amenity": "taxi"}}, {"type": "way", "id": 309458016, "center": {"lat": 51.5055867, "lon": -0.1507536}, "nodes": [3147915669, 3147915681, 3147915680, 3147915677, 3147915676, 3147915675, 3147915668, 3147915669], "tags": {"access": "customers", "amenity": "parking", "capacity": "6"}}, {"type": "way", "id": 340662081, "center": {"lat": 51.5063213, "lon": -0.1496374}, "nodes": [3479105779, 3479105790, 3485214221, 3479105787, 3479105782, 3479105783, 3479105777, 3479105779], "tags": {"brand": "William Hill", "brand:wikidata": "Q4053147", "brand:wikipedia": "en:William Hill (bookmaker)", "check_date": "2024-10-20", "name": "William Hill", "shop": "bookmaker"}}, {"type": "way", "id": 341313766, "center": {"lat": 51.5062788, "lon": -0.1493885}, "nodes": [3479105791, 3485171278, 3485171281, 3485171284, 3485167589, 3485171232, 3485171223, 3485171221, 3479105778, 3479105791], "tags": {"amenity": "casino", "building": "yes", "building:colour": "black", "building:levels": "5", "building:material": "brick", "name": "Crown Aspinalls", "source": "Bing;photograph", "website": "http://www.crownaspinalls.com/", "wikidata": "Q16975539", "wikipedia": "en:Crown London Aspinalls"}}, {"type": "way", "id": 341313811, "center": {"lat": 51.5063304, "lon": -0.1490015}, "nodes": [3485171798, 3485171799, 3485171804, 3485171805, 3485171802, 3485171806, 3485171230, 3485171224, 3485171235, 3485171258, 3485171798], "tags": {"addr:city": "London", "addr:housenumber": "30", "addr:street": "Curzon Street", "amenity": "casino", "building": "yes", "building:colour": "white", "building:levels": "4", "building:material": "plaster", "heritage": "2", "heritage:operator": "he", "heritage:website": "https://historicengland.org.uk/listing/the-list/list-entry/1356991", "listed_status": "Grade I", "name": "Crockfords", "ref:GB:nhle": "1356991", "start_date": "1771", "website": "https://www.crockfords.com/", "wikidata": "Q23301468", "wikipedia": "en:Crockfords (casino)"}}, {"type": "way", "id": 361411034, "center": {"lat": 51.5052333, "lon": -0.148679}, "nodes": [3658888505, 3658888504, 3658888503, 5965439779, 5965362349, 5965362342, 2468393634, 3658888505], "tags": {"addr:city": "London", "addr:postcode": "W1J 7AN", "addr:street": "Down Street", "amenity": "place_of_worship", "building": "church", "building:architecture": "gothic revival", "denomination": "anglican", "diocese": "Diocese of London", "heritage": "2", "heritage:operator": "he", "heritage:website": "https://historicengland.org.uk/listing/the-list/list-entry/1210739", "listed_status": "Grade II", "name": "Christ Church", "ref:GB:nhle": "1210739", "ref:GB:uprn": "100023476453", "religion": "christian", "start_date": "1865", "website": "https://christchurchmayfair.org/", "wikidata": "Q27080400"}}, {"type": "way", "id": 404488197, "center": {"lat": 51.5055943, "lon": -0.1501225}, "nodes": [4067823404, 4067823403, 4067823401, 4067823399, 4067823396, 4067823394, 4067823395, 4067823392, 4067823397, 4067823389, 4067823391, 4067823390, 4067823393, 4067823398, 4067823400, 4067823402, 4067823405, 4067823408, 4067823410, 4067823412, 4067823414, 4067823416, 4067823415, 4067823413, 4067823411, 4067823409, 4067823407, 4067823406, 4067823404], "tags": {"addr:city": "London", "addr:housenumber": "22", "addr:postcode": "W1K 1BE", "addr:street": "Park Lane", "amenity": "restaurant", "building": "yes", "building:levels": "29", "cuisine": "fine_dining", "height": "101", "name": "MR PORTER Steakhouse, Bar & Lounge London", "ref:GB:uprn": "10033584619;10033615270;100023475554;10033619260;10033570999;10033631963;10033571000;10033583062;10033583061;10033619927;10033624031", "website": "https://www.mrportersteakhouse.com/london"}}, {"type": "way", "id": 631474504, "center": {"lat": 51.5041033, "lon": -0.1489078}, "nodes": [5963460184, 2340771627, 5963460187, 5963460185, 5963460184], "tags": {"addr:city": "London", "addr:housenumber": "2", "addr:postcode": "W1K 1QN", "addr:street": "Old Park Lane", "amenity": "pub", "brand": "Greene King", "brand:wikidata": "Q5564162", "building": "yes", "building:levels": "4", "fhrs:id": "427925", "name": "Rose & Crown", "source:addr": "FHRS Open Data", "website": "https://www.greeneking-pubs.co.uk/pubs/greater-london/rose-crown/"}}, {"type": "way", "id": 631733297, "center": {"lat": 51.5053762, "lon": -0.1489875}, "nodes": [5965448143, 5965448145, 5965448146, 5965448144, 5965448143], "tags": {"addr:city": "London", "addr:housenumber": "19", "addr:postcode": "W1J 7RU", "addr:street": "Hertford Street", "amenity": "place_of_worship", "name": "Mayfair Islamic Centre", "ref:GB:uprn": "10033551362;100023476451;10033551363;10033551364;10033551365", "religion": "muslim", "website": "http://mayfairislamiccentre.org.uk/"}}, {"type": "way", "id": 1054341264, "center": {"lat": 51.5055696, "lon": -0.1494433}, "nodes": [9689257191, 9689257192, 9689257193, 9689257194, 9689257191], "tags": {"access": "yes", "amenity": "parking", "capacity": "50", "fee": "yes", "layer": "-1", "operator": "YourParkingSpace London Hilton Park Lane Car Park Hilton parking", "operator:type": "public", "parking": "underground", "surface": "concrete"}}]}