{"version": 0.6, "generator": "Overpass API 0.7.62.11 87bfad18", "osm3s": {"timestamp_osm_base": "2026-06-10T16:27:25Z", "copyright": "The data included in this document is from www.openstreetmap.org. The data is made available under ODbL."}, "elements": [{"type": "node", "id": 26866990, "lat": 51.5153419, "lon": -0.142835, "tags": {"amenity": "parking", "name": "Soho Cark Park"}}, {"type": "node", "id": 271949508, "lat": 51.5131214, "lon": -0.1422056, "tags": {"addr:city": "London", "addr:housenumber": "26", "addr:street": "Maddox Street", "amenity": "restaurant", "check_date": "2026-02-19", "cuisine": "steak_house", "name": "Goodman", "phone": "+44 20 7499 3776", "warning": "service charge included", "website": "https://www.goodmanrestaurants.com/", "wheelchair": "yes"}}, {"type": "node", "id": 271949545, "lat": 51.513393, "lon": -0.1423314, "tags": {"addr:city": "London", "addr:housenumber": "8-10", "addr:street": "Pollen Street", "amenity": "restaurant", "name": "Mary's", "toilets": "yes", "toilets:access": "customers", "toilets:wheelchair": "no", "website": "https://www.pollenstreetsocial.com/", "wheelchair": "limited", "wikidata": "Q13956892"}}, {"type": "node", "id": 300500855, "lat": 51.5122747, "lon": -0.1448767, "tags": {"addr:city": "London", "addr:housenumber": "1-3", "addr:postcode": "W1K 4PT", "addr:street": "Grosvenor Street", "brand": "Agent Provocateur", "brand:wikidata": "Q392755", "clothes": "underwear", "name": "Agent Provocateur", "opening_hours": "Mo-Sa 10:00-19:00; Su 12:00-18:00", "phone": "+44 20 7499 5093", "shop": "clothes", "source": "passing and web", "website": "https://www.agentprovocateur.com/", "wheelchair": "limited"}}, {"type": "node", "id": 452214758, "lat": 51.513906, "lon": -0.141668, "tags": {"amenity": "post_box", "brand": "Royal Mail", "brand:wikidata": "Q638098", "brand:wikipedia": "en:Royal Mail", "collection_times": "Mo-Fr 09:00; Sa 07:00", "drive_through": "no", "operator": "Royal Mail", "operator:wikidata": "Q638098", "post_box:apertures": "2", "post_box:design": "type_c", "post_box:type": "pillar", "ref": "W1B 91D;W1B 291D", "royal_cypher": "EIIR", "royal_cypher:wikidata": "Q33102113", "source": "survey"}}, {"type": "node", "id": 452218997, "lat": 51.5135831, "lon": -0.1443539, "tags": {"amenity": "Shop", "brand": "Dries van Noten", "check_date": "2026-06-08", "clothes": "women", "name": "Dries Van Noten", "payment:cash": "yes", "payment:credit_cards": "yes", "payment:debit_cards": "yes", "shop": "clothes", "wheelchair": "limited"}}, {"type": "node", "id": 452234988, "lat": 51.5147168, "lon": -0.1443136, "tags": {"addr:city": "London", "addr:housenumber": "5", "addr:postcode": "W1S 1BY", "addr:street": "Harewood Place", "amenity": "fast_food", "brand": "Subway", "brand:wikidata": "Q244457", "brand:wikipedia": "en:Subway (restaurant)", "check_date": "2025-12-23", "contact:website": "https://restaurants.subway.com/united-kingdom/en/london/5-harewood-place", "cuisine": "sandwich", "fhrs:confidence_management": "5", "fhrs:hygiene": "5", "fhrs:id": "411425", "fhrs:local_authority_id": "00405/0005/0/000", "fhrs:rating": "5", "fhrs:structural": "5", "name": "Subway", "source:addr": "FSA Food Hygiene Ratings Database", "source:postcode": "FSA Food Hygiene Ratings Database", "takeaway": "yes"}}, {"type": "node", "id": 452235373, "lat": 51.5143427, "lon": -0.1441578, "tags": {"amenity": "telephone", "booth": "K6", "operator": "BT", "operator:wikidata": "Q593786"}}, {"type": "node", "id": 452235673, "lat": 51.5135848, "lon": -0.1439727, "tags": {"amenity": "bicycle_parking", "capacity": "18"}}, {"type": "node", "id": 452236137, "lat": 51.5126021, "lon": -0.1454298, "tags": {"amenity": "bar", "name": "Mews"}}, {"type": "node", "id": 452239275, "lat": 51.5135007, "lon": -0.1417203, "tags": {"addr:city": "London", "addr:housenumber": "10", "addr:postcode": "W1S 1PF", "addr:street": "Maddox Street", "amenity": "fast_food", "brand": "Subway", "brand:wikidata": "Q244457", "brand:wikipedia": "en:Subway (restaurant)", "cuisine": "sandwich", "fhrs:confidence_management": "5", "fhrs:hygiene": "5", "fhrs:id": "427701", "fhrs:local_authority_id": "00115/0010/0/001", "fhrs:rating": "4", "fhrs:structural": "10", "name": "Subway", "source:addr": "FSA Food Hygiene Ratings Database", "source:postcode": "FSA Food Hygiene Ratings Database", "takeaway": "yes", "wheelchair": "limited"}}, {"type": "node", "id": 452239369, "lat": 51.5137817, "lon": -0.1418994, "tags": {"addr:city": "London", "addr:housenumber": "18", "addr:postcode": "W1S 1YN", "addr:street": "Hanover Street", "amenity": "fast_food", "brand": "Pret A Manger", "brand:wikidata": "Q2109109", "brand:wikipedia": "en:Pret a Manger", "check_date": "2024-09-10", "contact:website": "https://locations.pret.co.uk/london/18-hanover-street", "cuisine": "sandwich", "fhrs:confidence_management": "0", "fhrs:hygiene": "0", "fhrs:id": "427789", "fhrs:local_authority_id": "00435/0018/0/001", "fhrs:rating": "5", "fhrs:structural": "5", "name": "Pret A Manger", "payment:american_express": "yes", "short_name": "Pret", "source:addr": "FSA Food Hygiene Ratings Database", "takeaway": "yes", "wheelchair": "yes"}}, {"type": "node", "id": 452240116, "lat": 51.5134928, "lon": -0.1429832, "tags": {"amenity": "fast_food", "brand": "itsu", "brand:wikidata": "Q6094914", "brand:wikipedia": "en:Itsu", "check_date": "2024-08-20", "cuisine": "asian", "name": "itsu", "payment:american_express": "yes", "payment:cash": "no", "payment:contactless": "yes", "payment:credit_cards": "yes", "payment:debit_cards": "yes", "takeaway": "yes", "website": "https://www.itsu.com/location/london/hanover-square/"}}, {"type": "node", "id": 452418792, "lat": 51.5121696, "lon": -0.1452598, "tags": {"amenity": "telephone", "booth": "K6", "check_date": "2025-11-15", "covered": "booth", "operator": "BT", "operator:wikidata": "Q593786", "phone": "+44 20 7493 5245"}}, {"type": "node", "id": 456363918, "lat": 51.5124813, "lon": -0.1460656, "tags": {"amenity": "bicycle_parking", "capacity": "12"}}, {"type": "node", "id": 623429481, "lat": 51.5151736, "lon": -0.144343, "tags": {"amenity": "bicycle_parking", "bicycle_parking": "stands", "capacity": "6", "covered": "no"}}, {"type": "node", "id": 1326726602, "lat": 51.5126221, "lon": -0.1458698, "tags": {"addr:city": "London", "addr:housenumber": "9-10", "addr:street": "Avery Row", "amenity": "fast_food", "brand": "EAT.", "brand:wikidata": "Q5331219", "brand:wikipedia": "en:Eat (restaurant)", "cuisine": "sandwich", "name": "EAT.", "source:name": "survey", "takeaway": "yes"}}, {"type": "node", "id": 1331703746, "lat": 51.5131154, "lon": -0.1466254, "tags": {"amenity": "bicycle_parking", "capacity": "8"}}, {"type": "node", "id": 1331746884, "lat": 51.5132563, "lon": -0.1467686, "tags": {"addr:city": "London", "addr:housenumber": "65", "addr:street": "South Molton Street", "brand": "Thomas Sabo", "brand:wikidata": "Q13415716", "brand:wikipedia": "en:Thomas Sabo", "name": "Thomas Sabo", "phone": "+44 20 3298 0147", "shop": "jewelry", "website": "https://www.thomassabo.com/", "wheelchair": "yes"}}, {"type": "node", "id": 1331746911, "lat": 51.5131043, "lon": -0.1468259, "tags": {"addr:city": "London", "addr:housenumber": "1", "addr:street": "South Molton Street", "name": "Annoushka", "shop": "jewelry", "website": "https://www.annoushka.com/", "wheelchair": "no"}}, {"type": "node", "id": 1331746913, "lat": 51.5131542, "lon": -0.1469333, "tags": {"addr:city": "London", "addr:housenumber": "2", "addr:street": "South Molton Street", "name": "Sandro", "shop": "clothes", "website": "https://www.sandro-paris.com/", "wheelchair": "no"}}, {"type": "node", "id": 1331746944, "lat": 51.5134045, "lon": -0.1470773, "tags": {"addr:city": "London", "addr:housenumber": "62", "addr:street": "South Molton Street", "brand": "Petit Bateau", "brand:wikidata": "Q3377090", "brand:wikipedia": "en:Petit Bateau", "name": "Petit Bateau", "shop": "clothes", "website": "http://www.petitbateau.com", "wheelchair": "yes"}}, {"type": "node", "id": 1493424623, "lat": 51.5127937, "lon": -0.1457785, "tags": {"addr:city": "London", "addr:housenumber": "8", "addr:postcode": "W1S 1EY", "addr:street": "Lancashire Court", "amenity": "restaurant", "fhrs:confidence_management": "5", "fhrs:hygiene": "10", "fhrs:id": "414413", "fhrs:local_authority_id": "01726/0008/0/000", "fhrs:rating": "4", "fhrs:structural": "5", "name": "Hush", "source:addr": "FSA Food Hygiene Ratings Database", "source:postcode": "FSA Food Hygiene Ratings Database", "website": "https://hush.co.uk/"}}, {"type": "node", "id": 1988788101, "lat": 51.5123066, "lon": -0.1453597, "tags": {"addr:city": "London", "addr:country": "GB", "addr:housenumber": "32", "addr:postcode": "W1K 4BE", "addr:street": "Avery Row", "amenity": "fast_food", "brand": "Pret A Manger", "brand:wikidata": "Q2109109", "brand:wikipedia": "en:Pret a Manger", "contact:website": "https://locations.pret.co.uk/london/32-avery-row", "cuisine": "sandwich", "fhrs:id": "427903", "fhrs:local_authority_id": "00745/0032/0/000", "name": "Pret A Manger", "short_name": "Pret", "source:postcode": "FSA Food Hygiene Ratings Database", "takeaway": "yes"}}, {"type": "node", "id": 2121751752, "lat": 51.5133167, "lon": -0.1440959, "tags": {"amenity": "telephone", "booth": "K6", "operator": "BT", "operator:wikidata": "Q593786", "source": "Bing;survey"}}, {"type": "node", "id": 2323760201, "lat": 51.5126719, "lon": -0.145049, "tags": {"addr:city": "London", "addr:housenumber": "120-122", "addr:street": "New Bond Street", "brand": "Hugo Boss", "brand:wikidata": "Q491627", "brand:wikipedia": "en:Hugo Boss", "check_date": "2026-06-08", "name": "Hugo Boss", "phone": "+44 20 7499 5605", "shop": "clothes", "short_name": "Boss", "website": "https://www.hugoboss.com/", "wheelchair": "yes"}}, {"type": "node", "id": 2363468109, "lat": 51.5130509, "lon": -0.145433, "tags": {"brand": "Victoria's Secret", "brand:wikidata": "Q332477", "brand:wikipedia": "en:Victoria's Secret", "clothes": "underwear;women", "name": "Victoria's Secret", "name:zh": "\u7ef4\u5bc6\u4e13\u5356", "shop": "clothes"}}, {"type": "node", "id": 2418663018, "lat": 51.5146251, "lon": -0.1461361, "tags": {"check_date": "2025-02-07", "name": "Real Greek Food", "shop": "kiosk"}}, {"type": "node", "id": 2427879271, "lat": 51.5146203, "lon": -0.1421375, "tags": {"amenity": "toilets", "changing_table": "yes", "fee": "yes", "female": "yes", "male": "yes", "name": "Princes Street", "opening_hours": "24/7", "wheelchair": "yes"}}, {"type": "node", "id": 2431768580, "lat": 51.5151851, "lon": -0.1444659, "tags": {"amenity": "bicycle_parking", "bicycle_parking": "stands", "capacity": "6", "covered": "no"}}, {"type": "node", "id": 2611368371, "lat": 51.5134089, "lon": -0.1421937, "tags": {"addr:city": "London", "addr:housenumber": "3", "addr:postcode": "W1S 1NA", "addr:street": "Pollen Street", "amenity": "cafe", "internet_access": "yes", "name": "Sunflower Cafe", "wheelchair": "no"}}, {"type": "node", "id": 2892069401, "lat": 51.5148722, "lon": -0.1445907, "tags": {"amenity": "post_box", "brand": "Royal Mail", "brand:wikidata": "Q638098", "check_date": "2024-02-29", "collection_times": "Mo-Fr 16:00, Sa 10:30", "colour": "red", "operator": "Royal Mail", "operator:wikidata": "Q638098", "post_box:apertures": "2", "post_box:design": "type_c", "post_box:type": "pillar", "ref": "W1C 77;W1C 277", "royal_cypher": "EIIR", "royal_cypher:wikidata": "Q33102113", "source": "survey"}}, {"type": "node", "id": 3357919383, "lat": 51.5131037, "lon": -0.1464869, "tags": {"addr:city": "London", "addr:housenumber": "32", "addr:street": "Brook Street", "name": "Links of London", "phone": "+44 20 7499 7909", "shop": "jewelry", "website": "https://www.linksoflondon.com/", "wheelchair": "no"}}, {"type": "node", "id": 3357922878, "lat": 51.5130118, "lon": -0.1460665, "tags": {"addr:city": "London", "addr:housenumber": "27-29", "addr:street": "Brook Street", "name": "Sonia Rykiel", "shop": "clothes", "website": "https://www.soniarykiel.com/", "wheelchair": "yes"}}, {"type": "node", "id": 3357922884, "lat": 51.5145593, "lon": -0.1439644, "tags": {"addr:city": "London", "addr:housenumber": "13", "addr:street": "Hanover Square", "amenity": "cafe", "brand": "Starbucks", "brand:wikidata": "Q37158", "brand:wikipedia": "en:Starbucks", "check_date": "2025-12-23", "cuisine": "coffee_shop", "name": "Starbucks", "official_name": "Starbucks Coffee", "phone": "+44 20 7495 3936", "takeaway": "yes"}}, {"type": "node", "id": 3357928301, "lat": 51.5148176, "lon": -0.1466394, "tags": {"addr:city": "London", "addr:housenumber": "326", "addr:street": "Oxford Street", "brand": "Calzedonia", "brand:wikidata": "Q1027874", "brand:wikipedia": "en:Calzedonia", "check_date": "2026-01-30", "clothes": "lingerie", "name": "Calzedonia", "second_hand": "no", "shop": "clothes", "wheelchair": "limited"}}, {"type": "node", "id": 3357928318, "lat": 51.5149957, "lon": -0.1431696, "tags": {"name": "City Luggage", "shop": "bag", "wheelchair": "no"}}, {"type": "node", "id": 3357928323, "lat": 51.5151805, "lon": -0.1439727, "tags": {"check_date": "2025-12-23", "level": "2", "name": "Carvela", "old_name": "Coast", "second_hand": "no", "shop": "shoes", "wheelchair": "designated"}}, {"type": "node", "id": 3357928361, "lat": 51.5148055, "lon": -0.146769, "tags": {"addr:city": "London", "addr:housenumber": "328-330", "addr:street": "Oxford Street", "brand": "Swarovski", "brand:wikidata": "Q611115", "name": "Swarovski", "shop": "jewelry"}}, {"type": "node", "id": 3357928364, "lat": 51.5151755, "lon": -0.144202, "tags": {"brand": "Kurt Geiger", "brand:wikidata": "Q17063744", "check_date": "2025-03-07", "name": "Kurt Geiger", "old_name": "G-Star Raw", "shop": "shoes"}}, {"type": "node", "id": 3357928370, "lat": 51.5151952, "lon": -0.1438187, "tags": {"addr:city": "London", "addr:housenumber": "266", "addr:street": "Oxford Street", "brand": "Geox", "brand:wikidata": "Q588001", "brand:wikipedia": "en:Geox", "check_date": "2025-12-23", "level": "0", "name": "Geox", "payment:american_express": "yes", "shop": "shoes", "wheelchair": "yes"}}, {"type": "node", "id": 3357928380, "lat": 51.5152928, "lon": -0.1430801, "tags": {"addr:city": "London", "addr:housenumber": "250", "addr:street": "Oxford Street", "brand": "H.Samuel", "brand:wikidata": "Q5628558", "brand:wikipedia": "en:H. Samuel", "check_date": "2025-12-23", "name": "H.Samuel", "payment:american_express": "yes", "shop": "jewelry", "website": "https://www.hsamuel.co.uk/store/GB-REG/London/HS4253", "wheelchair": "yes"}}, {"type": "node", "id": 3357928604, "lat": 51.5150189, "lon": -0.1429588, "tags": {"addr:city": "London", "addr:housenumber": "263-265", "addr:street": "Oxford Street", "amenity": "bureau_de_change", "brand": "Change Group", "brand:wikidata": "Q5071758", "name": "Change Group"}}, {"type": "node", "id": 3357928634, "lat": 51.5129894, "lon": -0.1462118, "tags": {"addr:city": "London", "addr:housenumber": "31", "addr:street": "Brook Street", "name": "L.K.Bennett", "phone": "+44 20 7629 3923", "shop": "clothes", "website": "https://www.lkbennett.com/", "wheelchair": "yes"}}, {"type": "node", "id": 3357928830, "lat": 51.514672, "lon": -0.1442916, "tags": {"name": "Newsmart", "shop": "newsagent"}}, {"type": "node", "id": 3357928855, "lat": 51.5129548, "lon": -0.1464276, "tags": {"addr:city": "London", "addr:housenumber": "35", "addr:street": "Brook Street", "name": "Pomellato", "shop": "jewelry", "wheelchair": "yes"}}, {"type": "node", "id": 3357928880, "lat": 51.513141, "lon": -0.146555, "tags": {"addr:city": "London", "addr:housenumber": "67", "addr:street": "South Molton Street", "name": "Sakar\u00e9", "shop": "cosmetics", "website": "https://www.sakare.com/"}}, {"type": "node", "id": 3357928891, "lat": 51.5148293, "lon": -0.146558, "tags": {"addr:city": "London", "addr:housenumber": "324", "addr:street": "Oxford Street", "name": "London Calling...", "shop": "gift"}}, {"type": "node", "id": 3357929193, "lat": 51.5150062, "lon": -0.1431015, "tags": {"addr:city": "London", "addr:housenumber": "271", "addr:street": "Oxford Street", "name": "Surprise Surprise", "shop": "gift", "wheelchair": "yes"}}, {"type": "node", "id": 3357929201, "lat": 51.5131702, "lon": -0.1466135, "tags": {"addr:city": "London", "addr:housenumber": "66", "addr:street": "South Molton Street", "clothes": "children", "name": "Picco", "shop": "clothes"}}, {"type": "node", "id": 3357929250, "lat": 51.5153114, "lon": -0.1429316, "tags": {"addr:city": "London", "addr:housenumber": "242-248", "addr:street": "Oxford Street", "brand": "Under Armour", "brand:wikidata": "Q2031485", "clothes": "men;women", "name": "Under Armour", "old_name": "Gift Land", "shop": "clothes", "website": "https://www.underarmour.co.uk/en-gb/stores/detail/OXFOR-OS242248L/", "wheelchair": "yes"}}, {"type": "node", "id": 3454789695, "lat": 51.5132602, "lon": -0.1451151, "tags": {"amenity": "motorcycle_parking", "parking": "surface"}}, {"type": "node", "id": 3760450113, "lat": 51.5153967, "lon": -0.1444178, "tags": {"amenity": "bicycle_parking", "bicycle_parking": "stands", "capacity": "6", "covered": "no"}}, {"type": "node", "id": 4199100147, "lat": 51.5134721, "lon": -0.1448176, "tags": {"addr:city": "London", "addr:housenumber": "37", "addr:postcode": "W1S 3QD", "addr:street": "Savile Row", "email": "enquiries@kathrynsargent.com", "name": "Kathryn Sargent", "opening_hours": "Mo-Sa 10:00-18:00; Su closed", "phone": "+44 20 7493 2450", "shop": "tailor", "website": "https://www.kathrynsargent.com/"}}, {"type": "node", "id": 4226030289, "lat": 51.5136052, "lon": -0.1460105, "tags": {"addr:city": "London", "addr:housenumber": "104", "addr:street": "New Bond Street", "check_date": "2024-09-10", "name": "Galeries Bartoux", "shop": "art", "website": "https://www.galeries-bartoux.com/", "wheelchair": "yes"}}, {"type": "node", "id": 4475134598, "lat": 51.5123372, "lon": -0.1455559, "tags": {"addr:city": "London", "addr:housenumber": "30", "addr:postcode": "W1K 4BB", "addr:street": "Avery Row", "amenity": "cafe", "fhrs:id": "412289", "name": "Everbean Cafe"}}, {"type": "node", "id": 4475134599, "lat": 51.5123385, "lon": -0.1454485, "tags": {"name": "City Dry Cleaners", "shop": "dry_cleaning"}}, {"type": "node", "id": 4475134600, "lat": 51.512227, "lon": -0.1452018, "tags": {"addr:city": "London", "addr:country": "GB", "addr:housenumber": "4", "addr:postcode": "W1K 4PZ", "addr:street": "Grosvenor Street", "amenity": "fast_food", "name": "Atis"}}, {"type": "node", "id": 4492769439, "lat": 51.5135263, "lon": -0.1422056, "tags": {"addr:city": "London", "addr:housenumber": "5", "addr:postcode": "W1S 1NE", "addr:street": "Pollen Street", "amenity": "restaurant", "cuisine": "european", "fhrs:id": "568270", "name": "Little Social", "wheelchair": "no"}}, {"type": "node", "id": 4582705190, "lat": 51.51276, "lon": -0.1463693, "tags": {"addr:city": "London", "addr:housenumber": "23", "addr:postcode": "W1K 4AX", "addr:street": "Avery Row", "brand": "Paul Smith", "brand:wikidata": "Q56356277", "name": "Paul Smith", "name:en": "Paul Smith Sale Shop", "phone": "+44 20 7493 1287", "shop": "clothes", "website": "http://www.paulsmith.co.uk"}}, {"type": "node", "id": 4971073722, "lat": 51.5131733, "lon": -0.141796, "tags": {"addr:city": "London", "addr:housenumber": "17-19", "addr:postcode": "W1S 2QH", "addr:street": "Maddox Street", "amenity": "restaurant", "cuisine": "french", "name": "28\u00b0-50\u00b0 Wine Workshop & Kitchen", "name:en": "28\u00b0-50\u00b0 Wine Workshop & Kitchen", "phone": "+44 20 7495 1505", "website": "https://www.2850.co.uk/maddox", "wheelchair": "limited"}}, {"type": "node", "id": 5110909554, "lat": 51.5134343, "lon": -0.1450495, "tags": {"addr:city": "London", "addr:housenumber": "10", "addr:postcode": "W1S 1BG", "addr:street": "Brook Street", "check_date": "2026-06-08", "clothes": "fashion", "name": "Issey Miyake", "opening_hours": "Mo-We 10:00-18:00; Th 10:00-19:00; Fr-Sa 10:00-18:00; Su 13:00-18:00", "phone": "+44 20 7851 4620", "shop": "clothes", "website": "https://www.isseymiyake.com/"}}, {"type": "node", "id": 5264792739, "lat": 51.5137034, "lon": -0.1460952, "tags": {"addr:city": "London", "addr:housenumber": "102", "addr:street": "New Bond Street", "brand": "R.M.Williams", "brand:wikidata": "Q65042966", "brand:wikipedia": "en:R. M. Williams (company)", "check_date": "2024-09-10", "name": "R.M.Williams", "shop": "shoes", "website": "https://www.rmwilliams.com.au/", "wheelchair": "yes"}}, {"type": "node", "id": 5451822368, "lat": 51.5152125, "lon": -0.1436761, "tags": {"addr:city": "London", "addr:housenumber": "264", "addr:street": "Oxford Street", "check_date": "2025-12-23", "level": "0, 1", "name": "Sole Trader", "shop": "shoes", "wheelchair": "limited"}}, {"type": "node", "id": 5451822369, "lat": 51.5152469, "lon": -0.1434431, "tags": {"addr:city": "London", "addr:housenumber": "260", "addr:street": "Oxford Street", "brand": "Clarks", "brand:wikidata": "Q1095857", "brand:wikipedia": "en:C. & J. Clark", "check_date": "2025-12-23", "level": "0, -1", "name": "Clarks", "payment:american_express": "yes", "second_hand": "no", "shop": "shoes", "wheelchair": "limited"}}, {"type": "node", "id": 5489877121, "lat": 51.5132349, "lon": -0.1417176, "tags": {"addr:city": "London", "addr:housenumber": "15", "addr:postcode": "W1S 2QQ", "addr:street": "Maddox Street", "amenity": "cafe", "cuisine": "breakfast", "fhrs:id": "946325", "name": "Ergon Deli", "phone": "+44 20 7436 8237", "website": "https://www.ergonfoods.com/restaurants/london/"}}, {"type": "node", "id": 5589808322, "lat": 51.5134362, "lon": -0.1418099, "tags": {"addr:city": "London", "addr:housenumber": "14", "addr:street": "Maddox Street", "amenity": "bar", "level": "-1", "name": "Karaoke box", "phone": "+44 20 7493 8800", "website": "http://website.karaokebox.co.uk/mayfair/"}}, {"type": "node", "id": 5616305230, "lat": 51.5138348, "lon": -0.1429783, "tags": {"addr:city": "London", "addr:housenumber": "4", "addr:street": "Hanover Square", "name": "Blain|Southern", "phone": "+44 20 7493 4492", "shop": "art", "website": "https://www.blainsouthern.com/"}}, {"type": "node", "id": 5617882773, "lat": 51.5143014, "lon": -0.1455996, "tags": {"level": "4", "name": "Annely Juda Fine Art", "shop": "art", "website": "https://www.annelyjudafineart.co.uk/about"}}, {"type": "node", "id": 5617882774, "lat": 51.5142764, "lon": -0.1456653, "tags": {"level": "1", "name": "Whitfield Fine Art", "shop": "art", "website": "http://www.whitfieldfineart.com/about-us/", "wikidata": "Q7996458"}}, {"type": "node", "id": 5618206360, "lat": 51.5142957, "lon": -0.1446751, "tags": {"addr:city": "London", "addr:housenumber": "17", "addr:street": "Hanover Square", "amenity": "nightclub", "name": "Tape", "website": "https://tapelondon.com/"}}, {"type": "node", "id": 5628003374, "lat": 51.5124663, "lon": -0.1441761, "tags": {"addr:city": "London", "addr:country": "GB", "addr:housenumber": "58", "addr:street": "Maddox Street", "name": "Rohmir", "phone": "+44 20 7499 8350", "shop": "clothes", "website": "https://www.rohmir.com/"}}, {"type": "node", "id": 5628003375, "lat": 51.5124872, "lon": -0.1440996, "tags": {"addr:city": "London", "addr:housenumber": "56", "addr:street": "Maddox Street", "name": "Charlotte Olympia", "phone": "+44 20 7499 0145", "shop": "shoes", "website": "https://www.charlotteolympia.com/en/"}}, {"type": "node", "id": 5628003376, "lat": 51.5125086, "lon": -0.1440266, "tags": {"addr:city": "London", "addr:housenumber": "54", "addr:street": "Maddox Street", "name": "E. Marinella", "phone": "+44 20 7493 4210", "shop": "clothes", "website": "https://www.emarinella.com/en/e-marinella-english/"}}, {"type": "node", "id": 5628003377, "lat": 51.5125464, "lon": -0.1438834, "tags": {"addr:city": "London", "addr:housenumber": "50", "addr:postcode": "W1S 1AY", "addr:street": "Maddox Street", "phone": "+44 20 7499 8958", "shop": "vacant"}}, {"type": "node", "id": 5628003378, "lat": 51.5125881, "lon": -0.1437393, "tags": {"addr:city": "London", "addr:housenumber": "46", "addr:street": "Maddox Street", "clothes": "women", "name": "Natasha Zinko", "phone": "+44 20 7499 5925", "shop": "clothes", "website": "https://natashazinko.com/"}}, {"type": "node", "id": 5630578575, "lat": 51.5137074, "lon": -0.1424784, "tags": {"addr:city": "London", "addr:housenumber": "11-12", "addr:postcode": "W1S 1YA", "addr:street": "Hanover Street", "amenity": "cafe", "cuisine": "sandwich", "name": "Benugo", "phone": "+44 20 7499 2530", "website": "https://www.benugo.com/cafes/hanover-street", "wheelchair": "yes"}}, {"type": "node", "id": 5634018812, "lat": 51.5130574, "lon": -0.1422952, "tags": {"addr:city": "London", "addr:housenumber": "28", "addr:street": "Maddox Street", "description": "Destination Skin provide a range of anti-ageing and skincare treatments.", "name": "Destination Skin", "phone": "+44 20 7068 0730", "shop": "beauty", "website": "https://www.destinationskin.com/"}}, {"type": "node", "id": 5634018813, "lat": 51.5129774, "lon": -0.1423998, "tags": {"addr:city": "London", "addr:housenumber": "32", "addr:street": "Maddox Street", "amenity": "restaurant", "check_date": "2026-02-19", "cuisine": "japanese", "name": "Poke House", "phone": "+44 20 7629 5088", "website": "https://www.a-zstore.co.uk/"}}, {"type": "node", "id": 5634050677, "lat": 51.5134647, "lon": -0.1417819, "tags": {"addr:city": "London", "addr:housenumber": "12", "addr:street": "Maddox Street", "brand": "Headmasters", "brand:wikidata": "Q113700332", "name": "Headmasters", "phone": "+44 345 459 7733", "shop": "hairdresser", "website": "https://www.headmasters.com/salons/mayfair/"}}, {"type": "node", "id": 5634050678, "lat": 51.5134138, "lon": -0.1418409, "tags": {"addr:city": "London", "addr:housenumber": "14", "addr:street": "Maddox Street", "amenity": "cafe", "level": "0", "name": "Aline of Lebanon", "phone": "+44 20 7096 2119", "website": "https://alineoflebanon.com/"}}, {"type": "node", "id": 5634050683, "lat": 51.5133404, "lon": -0.1419281, "tags": {"addr:city": "London", "addr:housenumber": "18", "addr:street": "Maddox Street", "name": "Hana", "phone": "+44 20 7499 3885", "shop": "hairdresser", "website": "http://www.hanasalon.co.uk/", "wheelchair": "limited"}}, {"type": "node", "id": 5634050684, "lat": 51.5132986, "lon": -0.1419871, "tags": {"addr:city": "London", "addr:housenumber": "18a", "addr:street": "Maddox Street", "description": "Vital Ingredient serves salads, soups and juices.", "name": "Vital Ingredient", "organic": "only", "phone": "+44 20 7491 8744", "shop": "supermarket", "website": "http://www.vitalingredient.co.uk", "wheelchair": "no"}}, {"type": "node", "id": 5634052806, "lat": 51.5131697, "lon": -0.1421412, "tags": {"addr:city": "London", "addr:housenumber": "22", "addr:street": "Maddox Street", "name": "Steven Carey", "phone": "+44 20 7495 9040", "shop": "hairdresser", "wheelchair": "yes"}}, {"type": "node", "id": 5634090304, "lat": 51.5128676, "lon": -0.1424771, "tags": {"addr:city": "London", "addr:housenumber": "34", "addr:street": "Maddox Street", "name": "Sidney Rose", "shop": "convenience"}}, {"type": "node", "id": 5636440970, "lat": 51.512784, "lon": -0.1422947, "tags": {"addr:city": "London", "addr:housenumber": "37", "addr:street": "Maddox Street", "amenity": "fast_food", "cuisine": "italian", "level": "0", "name": "Ciao Italian Kitchen", "phone": "+44 20 7499 3843", "takeaway": "yes", "website": "https://www.ciaozone.com/"}}, {"type": "node", "id": 5636440972, "lat": 51.5128245, "lon": -0.142237, "tags": {"addr:city": "London", "addr:country": "GB", "addr:housenumber": "33", "addr:street": "Maddox Street", "brand": "Hidden Hearing", "brand:wikidata": "Q107301478", "contact:phone": "+44 20 7046 6066", "contact:website": "https://www.hiddenhearing.co.uk/hearing-aids-centre/greater-london/hidden-hearing-london-maddox-street", "name": "Hidden Hearing", "shop": "hearing_aids"}}, {"type": "node", "id": 5636440979, "lat": 51.5129193, "lon": -0.1421196, "tags": {"addr:city": "London", "addr:housenumber": "29", "addr:street": "Maddox Street", "amenity": "restaurant", "cuisine": "indian", "name": "Bombay Bustle", "phone": "+44 20 7290 4470", "website": "https://www.bombaybustle.com/"}}, {"type": "node", "id": 5636440980, "lat": 51.5129669, "lon": -0.1420659, "tags": {"addr:city": "London", "addr:housenumber": "27", "addr:street": "Maddox Street", "brand": "Ladbrokes", "brand:wikidata": "Q1799875", "brand:wikipedia": "en:Ladbrokes Coral", "name": "Ladbrokes", "shop": "bookmaker"}}, {"type": "node", "id": 5636440981, "lat": 51.5130654, "lon": -0.1419465, "tags": {"addr:city": "London", "addr:housenumber": "23", "addr:street": "Maddox Street", "amenity": "bar", "name": "Joe & The Juice", "website": "https://www.joejuice.com/stores/uk/maddox-street/", "wheelchair": "limited"}}, {"type": "node", "id": 5636473409, "lat": 51.513278, "lon": -0.1416777, "tags": {"addr:city": "London", "addr:housenumber": "13", "addr:street": "Maddox Street", "name": "Butikku", "shop": "clothes", "website": "https://butikku.uk/"}}, {"type": "node", "id": 5638790171, "lat": 51.5133164, "lon": -0.1416412, "tags": {"addr:city": "London", "addr:housenumber": "11", "addr:street": "Maddox Street", "amenity": "restaurant", "cuisine": "japanese", "phone": "+44 20 7629 3000"}}, {"type": "node", "id": 5638790172, "lat": 51.5133581, "lon": -0.1415916, "tags": {"addr:city": "London", "addr:housenumber": "9", "addr:street": "Maddox Street", "name": "Maddox Gallery", "shop": "art", "wheelchair": "limited"}}, {"type": "node", "id": 5643562567, "lat": 51.5125199, "lon": -0.1433545, "tags": {"amenity": "pharmacy", "dispensing": "yes", "healthcare": "pharmacy", "name": "C. W. Andrew"}}, {"type": "node", "id": 5645112766, "lat": 51.5123663, "lon": -0.1436925, "tags": {"level": "1", "name": "Ben Elwes Fine Art", "phone": "+44 20 7629 6645", "shop": "art", "website": "https://www.benelwes.co.uk/"}}, {"type": "node", "id": 5645112767, "lat": 51.5124205, "lon": -0.1437279, "tags": {"addr:city": "London", "addr:housenumber": "45", "addr:street": "Maddox Street", "level": "0", "name": "Amishi", "phone": "+44 20 7493 9775", "shop": "clothes", "website": "https://amishi.london/"}}, {"type": "node", "id": 5645112768, "lat": 51.5123672, "lon": -0.1439528, "tags": {"addr:city": "London", "addr:housenumber": "51", "addr:street": "Maddox Street", "description": "Antique Clocks Sales & Repairs", "name": "Pendulum Of Mayfair", "shop": "antiques", "website": "https://www.pendulumofmayfair.co.uk/"}}, {"type": "node", "id": 5645203501, "lat": 51.5121904, "lon": -0.1441563, "tags": {"addr:city": "London", "addr:country": "GB", "addr:housenumber": "43-44", "addr:street": "New Bond Street", "brand": "Wempe", "brand:wikidata": "Q1483424", "brand:wikipedia": "de:Gerhard D. Wempe", "description": "Wempe sell exquisite timepieces and jewellery.", "name": "Wempe", "shop": "jewelry", "website": "https://www.wempe.com/en/wempe-cities/international/london", "wheelchair": "yes"}}, {"type": "node", "id": 5746371092, "lat": 51.5120904, "lon": -0.144398, "tags": {"addr:city": "London", "addr:housenumber": "133", "addr:street": "New Bond Street", "brand": "Church's", "brand:wikidata": "Q2967663", "check_date": "2026-06-08", "check_date:opening_hours": "2025-07-21", "name": "Church's", "opening_hours:signed": "no", "phone": "+44 20 7493 1474", "shop": "shoes", "website": "https://www.church-footwear.com/", "wheelchair": "yes"}}, {"type": "node", "id": 5746381833, "lat": 51.5122147, "lon": -0.1445521, "tags": {"addr:city": "London", "addr:housenumber": "130", "addr:street": "New Bond Street", "brand": "Breitling", "brand:wikidata": "Q665740", "check_date": "2026-06-08", "check_date:opening_hours": "2025-07-21", "name": "Breitling", "opening_hours:signed": "no", "phone": "+44 20 7499 8596", "shop": "watches", "website": "https://www.breitling.com/"}}, {"type": "node", "id": 5756834967, "lat": 51.5124313, "lon": -0.145688, "tags": {"addr:city": "London", "addr:housenumber": "28", "addr:street": "Avery Row", "clothes": "women", "name": "Gallery 28", "phone": "+44 20 7499 3651", "shop": "clothes", "website": "https://www.gallery28.com/"}}, {"type": "node", "id": 5756834968, "lat": 51.5124809, "lon": -0.1457623, "tags": {"addr:city": "London", "addr:housenumber": "27", "addr:street": "Avery Row", "name": "Avery Fine Perfumery", "phone": "+44 20 7629 1892", "shop": "cosmetics", "website": "https://www.averyfineperfumeries.com/"}}, {"type": "node", "id": 5759754511, "lat": 51.5124623, "lon": -0.1447733, "tags": {"addr:city": "London", "addr:housenumber": "126-127", "addr:street": "New Bond Street", "check_date": "2025-04-29", "name": "Swaine", "shop": "fashion_accessories", "wheelchair": "yes"}}, {"type": "node", "id": 5759754516, "lat": 51.5125376, "lon": -0.1448616, "tags": {"addr:city": "London", "addr:housenumber": "125", "addr:postcode": "W1S 1DY", "addr:street": "New Bond Street", "brand": "Rimowa", "brand:wikidata": "Q1287437", "check_date": "2025-04-29", "name": "Rimowa", "shop": "bag", "wheelchair": "yes"}}, {"type": "node", "id": 5761132967, "lat": 51.5130435, "lon": -0.1458744, "tags": {"addr:city": "London", "addr:housenumber": "23", "addr:street": "Brook Street", "name": "N.Peal", "shop": "clothes", "website": "https://www.npeal.com/"}}, {"type": "node", "id": 5761214194, "lat": 51.5130281, "lon": -0.1459565, "tags": {"addr:city": "London", "addr:housenumber": "25", "addr:street": "Brook Street", "clothes": "leather;accessories", "name": "Aspinal of London", "phone": "+44 20 7493 9509", "shop": "clothes", "website": "https://www.aspinaloflondon.com/", "wheelchair": "limited"}}, {"type": "node", "id": 5762136732, "lat": 51.5129732, "lon": -0.1463347, "tags": {"addr:city": "London", "addr:housenumber": "33", "addr:street": "Brook Street", "name": "Issey Miyake", "phone": "+44 20 7495 2306", "shop": "clothes", "website": "https://www.isseymiyake.com/en/stores/158", "wheelchair": "yes"}}, {"type": "node", "id": 5762151598, "lat": 51.512928, "lon": -0.146551, "tags": {"addr:city": "London", "addr:housenumber": "37", "addr:street": "Brook Street", "brand": "Diptyque'", "brand:wikidata": "Q1227345", "name": "Diptyque'", "shop": "perfumery", "website": "http://www.diptyqueparis.co.uk/"}}, {"type": "node", "id": 5762151600, "lat": 51.5128704, "lon": -0.1464453, "tags": {"addr:city": "London", "addr:housenumber": "20", "addr:street": "Avery Row", "name": "Offord Newsagents", "shop": "newsagent"}}, {"type": "node", "id": 5762161040, "lat": 51.5128176, "lon": -0.1463384, "tags": {"addr:city": "London", "addr:housenumber": "18", "addr:street": "Avery Row", "amenity": "fast_food", "name": "Cardinal's Cafe"}}, {"type": "node", "id": 5762689181, "lat": 51.5127886, "lon": -0.1462794, "tags": {"addr:city": "London", "addr:housenumber": "17", "addr:street": "Avery Row", "name": "John Mitchell Fine Paintings Ltd", "shop": "art", "website": "http://www.johnmitchellfinepaintings.com/"}}, {"type": "node", "id": 5762689183, "lat": 51.5126962, "lon": -0.1460572, "tags": {"addr:city": "London", "addr:housenumber": "12-13", "addr:postcode": "W1K 4AW", "addr:street": "Avery Row", "name": "CAROLINA WONG", "opening_hours": "Mo-Su 10:30-18:30", "operator": "CAROLINA WONG", "phone": "+447405887533", "shop": "jewelry", "website": "https://carolinawong.co.uk/"}}, {"type": "node", "id": 5762720206, "lat": 51.5125922, "lon": -0.1457905, "tags": {"addr:city": "London", "addr:housenumber": "8", "addr:street": "Avery Row", "name": "City Images", "shop": "copyshop", "website": "https://www.cityimages.co.uk/"}}, {"type": "node", "id": 5762720207, "lat": 51.5125651, "lon": -0.145723, "tags": {"addr:city": "London", "addr:housenumber": "7", "addr:street": "Avery Row", "name": "Time Machine", "phone": "+44 795 294 7037", "shop": "watches", "website": "http://swisstimemachine.co.uk/"}}, {"type": "node", "id": 5762720208, "lat": 51.5125285, "lon": -0.1456238, "tags": {"addr:city": "London", "addr:housenumber": "5", "addr:street": "Avery Row", "name": "Ted's Grooming Room", "phone": "+44 20 3397 9966", "shop": "hairdresser"}}, {"type": "node", "id": 5762728038, "lat": 51.5124905, "lon": -0.1455421, "tags": {"addr:city": "London", "addr:housenumber": "4", "addr:street": "Avery Row", "brand": "Jigsaw", "brand:wikidata": "Q6192383", "brand:wikipedia": "en:Jigsaw (clothing retailer)", "clothes": "women", "name": "Jigsaw", "shop": "clothes", "website": "https://www.jigsaw-online.com/"}}, {"type": "node", "id": 5764852029, "lat": 51.5127672, "lon": -0.1462258, "tags": {"addr:city": "London", "addr:housenumber": "16", "addr:street": "Avery Row", "name": "Les Vins De La Petite Maison", "shop": "wine"}}, {"type": "node", "id": 5764852030, "lat": 51.5126118, "lon": -0.1461461, "tags": {"addr:city": "London", "addr:housenumber": "54", "addr:postcode": "W1K 4EG", "addr:street": "Brook's Mews", "amenity": "restaurant", "cuisine": "french", "fhrs:id": "412630", "name": "La Petite Maison", "website": "http://www.lpmlondon.co.uk/london"}}, {"type": "node", "id": 5769481142, "lat": 51.5130623, "lon": -0.1469181, "tags": {"addr:city": "London", "addr:housenumber": "34a", "addr:street": "Brook Street", "amenity": "bar", "name": "Balls Brothers", "website": "https://www.ballsbrothers.co.uk/mayfair/home/"}}, {"type": "node", "id": 5769481143, "lat": 51.5130343, "lon": -0.1468495, "tags": {"addr:city": "London", "addr:housenumber": "34", "addr:street": "Brook Street", "name": "Pretty Ballerinas", "shop": "shoes", "website": "https://www.prettyballerinas.com/"}}, {"type": "node", "id": 5780575574, "lat": 51.5133662, "lon": -0.1470049, "tags": {"addr:city": "London", "addr:housenumber": "63", "addr:street": "South Molton Street", "name": "Hill & Friends", "shop": "bag", "website": "https://www.hillandfriends.com/"}}, {"type": "node", "id": 5780575575, "lat": 51.5133345, "lon": -0.1469218, "tags": {"addr:city": "London", "addr:housenumber": "64", "addr:street": "South Molton Street", "clothes": "men", "name": "Sartoria Rossi", "phone": "+44 20 7629 3440", "shop": "clothes", "website": "https://sartoriarossi.com/", "wheelchair": "yes"}}, {"type": "node", "id": 5780658521, "lat": 51.5131306, "lon": -0.1463976, "tags": {"addr:city": "London", "addr:housenumber": "30", "addr:street": "Brook Street", "amenity": "restaurant", "cuisine": "japanese", "name": "Ikeda", "website": "https://www.ikedarestaurant.com/", "wheelchair": "limited"}}, {"type": "node", "id": 5780658522, "lat": 51.5131557, "lon": -0.1463017, "tags": {"clothes": "men", "name": "Joseph", "shop": "clothes", "website": "https://www.joseph-fashion.com/"}}, {"type": "node", "id": 5784609883, "lat": 51.5131768, "lon": -0.1461499, "tags": {"addr:city": "London", "addr:housenumber": "26", "addr:street": "Brook Street", "clothes": "women", "name": "Maria Grachvogel", "shop": "clothes", "website": "https://www.mariagrachvogel.com/pages/"}}, {"type": "node", "id": 5784609884, "lat": 51.5131932, "lon": -0.1460777, "tags": {"clothes": "knitwear", "name": "John Smedley", "shop": "clothes", "website": "https://www.johnsmedley.com/", "wheelchair": "no"}}, {"type": "node", "id": 5784609885, "lat": 51.5132109, "lon": -0.1459869, "tags": {"addr:city": "London", "addr:housenumber": "22", "addr:street": "Brook Street", "description": "Alessi sell a wide range of designer kitchenware.", "name": "Alessi", "shop": "kitchenware", "website": "https://www.alessi.com/"}}, {"type": "node", "id": 5784609886, "lat": 51.5132309, "lon": -0.1458926, "tags": {"addr:city": "London", "addr:housenumber": "20", "addr:street": "Brook Street", "name": "Pleats Please Issey Miyake", "shop": "clothes", "wheelchair": "no"}}, {"type": "node", "id": 5784609887, "lat": 51.5132422, "lon": -0.1458409, "tags": {"name": "Penhaligon's", "shop": "cosmetics"}}, {"type": "node", "id": 5784676703, "lat": 51.5134545, "lon": -0.145846, "tags": {"addr:city": "London", "addr:housenumber": "107", "addr:street": "New Bond Street", "brand": "Diptyque'", "brand:wikidata": "Q1227345", "check_date": "2024-09-10", "name": "Diptyque'", "shop": "perfumery"}}, {"type": "node", "id": 5784884289, "lat": 51.5135572, "lon": -0.1459533, "tags": {"addr:city": "London", "addr:housenumber": "105", "addr:street": "New Bond Street", "name": "Bel-Air Fine Art", "shop": "art", "website": "https://www.belairfineart.com/en/", "wheelchair": "yes"}}, {"type": "node", "id": 5784884290, "lat": 51.5136605, "lon": -0.1460571, "tags": {"addr:city": "London", "addr:housenumber": "103", "addr:street": "New Bond Street", "check_date": "2024-09-10", "name": "Eden Gallery", "phone": "+44 20 7499 9905", "shop": "art", "website": "https://www.eden-gallery.com/", "wheelchair": "yes"}}, {"type": "node", "id": 5787575764, "lat": 51.5137787, "lon": -0.1461703, "tags": {"addr:city": "London", "addr:housenumber": "100", "addr:street": "New Bond Street", "brand": "Mephisto", "brand:wikidata": "Q822975", "brand:wikipedia": "fr:Mephisto (chaussure)", "check_date": "2026-02-19", "name": "Mephisto", "shop": "shoes", "wheelchair": "yes"}}, {"type": "node", "id": 5787575767, "lat": 51.5138281, "lon": -0.1462265, "tags": {"addr:city": "London", "addr:housenumber": "99", "addr:street": "New Bond Street", "check_date": "2026-02-19", "name": "Pini Parma", "shop": "clothes"}}, {"type": "node", "id": 5787575771, "lat": 51.513877, "lon": -0.1462822, "tags": {"addr:city": "London", "addr:housenumber": "98", "addr:street": "New Bond Street", "brand": "L.K.Bennett", "brand:wikidata": "Q6456292", "brand:wikipedia": "en:L.K.Bennett", "check_date": "2026-02-19", "currency:BCH": "yes", "name": "L.K.Bennett", "phone": "+44 20 7629 3539", "shop": "clothes", "wheelchair": "no"}}, {"type": "node", "id": 5787602213, "lat": 51.5140349, "lon": -0.1464358, "tags": {"addr:city": "London", "addr:housenumber": "95-96", "addr:street": "New Bond Street", "check_date": "2024-09-10", "shop": "vacant"}}, {"type": "node", "id": 5788754722, "lat": 51.5139239, "lon": -0.1467218, "tags": {"addr:city": "London", "addr:housenumber": "11", "addr:street": "Blenheim Street", "name": "Eleven", "phone": "+44 20 7491 2390", "shop": "hairdresser", "website": "https://www.eleven-hair.com/", "wheelchair": "limited"}}, {"type": "node", "id": 6250294685, "lat": 51.5124211, "lon": -0.1455797, "tags": {"amenity": "bicycle_parking", "bicycle_parking": "stands"}}, {"type": "node", "id": 6313644144, "lat": 51.5145334, "lon": -0.1460616, "tags": {"amenity": "bicycle_parking", "bicycle_parking": "stands", "capacity": "8", "covered": "no"}}, {"type": "node", "id": 6603678117, "lat": 51.5140229, "lon": -0.1469174, "tags": {"addr:city": "London", "addr:housenumber": "4", "addr:postcode": "W1S 1LB", "addr:street": "Blenheim Street", "amenity": "restaurant", "cuisine": "japanese;sushi", "fhrs:id": "411355", "name": "Cube"}}, {"type": "node", "id": 6612021808, "lat": 51.5138842, "lon": -0.1422086, "tags": {"amenity": "bicycle_parking", "bicycle_parking": "stands", "capacity": "16", "covered": "no"}}, {"type": "node", "id": 6721263886, "lat": 51.5147873, "lon": -0.1462338, "tags": {"amenity": "bench", "backrest": "no"}}, {"type": "node", "id": 6721263986, "lat": 51.5148377, "lon": -0.1459976, "tags": {"amenity": "bench", "backrest": "no", "check_date": "2024-05-10"}}, {"type": "node", "id": 6721263987, "lat": 51.5151197, "lon": -0.1437289, "tags": {"amenity": "bench", "backrest": "no", "check_date": "2025-12-23"}}, {"type": "node", "id": 6773156488, "lat": 51.5146616, "lon": -0.142659, "tags": {"amenity": "fast_food", "brand": "Neat", "brand:wikidata": "Q114006169", "cuisine": "burger;salad;sandwich", "diet:vegan": "only", "diet:vegetarian": "yes", "name": "Neat", "opening_hours": "Mo-Th 11:00-22:00; Fr,Sa 11:00-23:00; Su 12:00-22:00", "takeaway": "yes", "website": "https://www.neat-burger.com/pages/store-princes-st"}}, {"type": "node", "id": 7086766486, "lat": 51.5132447, "lon": -0.1452286, "tags": {"amenity": "bench"}}, {"type": "node", "id": 7086766686, "lat": 51.5139565, "lon": -0.1433768, "tags": {"amenity": "bicycle_parking", "bicycle_parking": "stands", "capacity": "35", "covered": "no"}}, {"type": "node", "id": 7503229412, "lat": 51.5150936, "lon": -0.1457566, "tags": {"amenity": "telephone", "booth": "KXPlus", "check_date": "2025-05-23", "operator": "BT", "operator:wikidata": "Q593786"}}, {"type": "node", "id": 7551815189, "lat": 51.5149718, "lon": -0.1439488, "tags": {"amenity": "bench", "backrest": "no", "check_date": "2025-12-23", "colour": "gray", "material": "concrete"}}, {"type": "node", "id": 7699206285, "lat": 51.5149657, "lon": -0.1457862, "tags": {"amenity": "bicycle_parking", "bicycle_parking": "stands", "capacity": "12", "check_date": "2025-11-21", "covered": "no"}}, {"type": "node", "id": 7799175388, "lat": 51.5151991, "lon": -0.1457895, "tags": {"amenity": "bicycle_parking", "bicycle_parking": "stands", "capacity": "22", "check_date": "2025-11-21", "covered": "no"}}, {"type": "node", "id": 7799175389, "lat": 51.5150344, "lon": -0.145814, "tags": {"amenity": "bench", "backrest": "no", "check_date": "2025-11-21"}}, {"type": "node", "id": 8370114915, "lat": 51.5156256, "lon": -0.1445382, "tags": {"amenity": "telephone", "booth": "KXPlus", "check_date": "2025-03-07", "covered": "booth", "operator": "BT", "operator:wikidata": "Q593786"}}, {"type": "node", "id": 8421621511, "lat": 51.5121684, "lon": -0.1452743, "tags": {"amenity": "telephone", "booth": "K6", "check_date": "2025-11-15", "covered": "booth", "operator": "BT", "operator:wikidata": "Q593786", "phone": "+44 20 7493 5212"}}, {"type": "node", "id": 8743864517, "lat": 51.5132302, "lon": -0.1449652, "tags": {"amenity": "restaurant", "cuisine": "sushi", "diet:vegan": "yes", "name": "123Vegan"}}, {"type": "node", "id": 9774755817, "lat": 51.5150237, "lon": -0.1428656, "tags": {"addr:city": "London", "addr:housenumber": "14-16", "addr:street": "Foubert''s Place", "check_date": "2025-11-29", "name": "NBA Store", "opening_hours": "Mo-Fr 11:00-19:00; Sa 10:00-19:00; Su 12:00-18:00", "shop": "clothes"}}, {"type": "node", "id": 9955746717, "lat": 51.5137771, "lon": -0.1456329, "tags": {"addr:city": "London", "addr:housenumber": "2-3", "addr:postcode": "W1S 1BR", "addr:street": "Medici Courtyard", "amenity": "cafe", "branch": "Hanover", "brand": "WatchHouse", "brand:wikidata": "Q121339538", "cuisine": "coffee_shop", "name": "WatchHouse", "opening_hours": "Mo-Fr 07:30-15:30; Sa 09:00-18:00; Su 09:00-18:00", "takeaway": "yes", "website": "http://WatchHouse.com"}}, {"type": "node", "id": 9966313529, "lat": 51.5137085, "lon": -0.1450772, "tags": {"addr:city": "London", "addr:housename": "WatchHouse Hanover", "addr:housenumber": "2-3", "addr:postcode": "W1S 1BR", "addr:street": "Medici Courtyard", "amenity": "cafe", "brand": "WatchHouse", "brand:wikidata": "Q121339538", "check_date": "2026-06-09", "cuisine": "coffee_shop", "email": "hanover@watchhouse.com", "fhrs:id": "1584344", "name": "WatchHouse", "opening_hours": "Mo-Fr 07:30-17:30; Sa 09:00-18:00; Su 10:00-17:00", "outdoor_seating": "yes", "phone": "+44 20 3146 4564", "start_date": "2022", "takeaway": "yes", "website": "https://watchhouse.com/"}}, {"type": "node", "id": 10267762640, "lat": 51.5135545, "lon": -0.1432875, "tags": {"amenity": "bicycle_parking", "bicycle_parking": "stands", "capacity": "16", "ref:GB:tflcid": "RWG057713"}}, {"type": "node", "id": 10267762641, "lat": 51.5135895, "lon": -0.1433673, "tags": {"amenity": "bicycle_parking", "bicycle_parking": "stands", "capacity": "16", "ref:GB:tflcid": "RWG057712"}}, {"type": "node", "id": 10267762642, "lat": 51.5137245, "lon": -0.1429997, "tags": {"amenity": "bicycle_parking", "bicycle_parking": "stands", "capacity": "10", "ref:GB:tflcid": "RWG058894"}}, {"type": "node", "id": 10267762643, "lat": 51.5136021, "lon": -0.1432799, "tags": {"amenity": "bicycle_parking", "bicycle_parking": "stands", "capacity": "6", "ref:GB:tflcid": "RWG057714"}}, {"type": "node", "id": 10267762644, "lat": 51.5134417, "lon": -0.1435821, "tags": {"amenity": "bicycle_parking", "bicycle_parking": "stands", "capacity": "6", "ref:GB:tflcid": "RWG057716"}}, {"type": "node", "id": 10267763022, "lat": 51.5131375, "lon": -0.1435641, "tags": {"amenity": "bicycle_parking", "bicycle_parking": "post_hoop", "capacity": "2", "ref:GB:tflcid": "RWG057718"}}, {"type": "node", "id": 10267763023, "lat": 51.5148783, "lon": -0.1443524, "tags": {"amenity": "bicycle_parking", "bicycle_parking": "stands", "capacity": "6", "ref:GB:tflcid": "RWG058028"}}, {"type": "node", "id": 10273115738, "lat": 51.5146294, "lon": -0.142052, "tags": {"amenity": "bicycle_parking", "bicycle_parking": "stands", "capacity": "10", "covered": "no", "ref:GB:tflcid": "RWG058025"}}, {"type": "node", "id": 11228586202, "lat": 51.5135855, "lon": -0.1431607, "tags": {"amenity": "post_box", "brand": "Royal Mail", "brand:wikidata": "Q638098", "check_date": "2024-02-29", "collection_times": "Mo-Fr 09:00; Sa 07:00", "colour": "red", "operator": "Royal Mail", "operator:wikidata": "Q638098", "post_box:apertures": "2", "post_box:design": "type_c", "post_box:type": "pillar", "ref": "W1S 83D;W1S 283D", "royal_cypher": "EIIR", "royal_cypher:wikidata": "Q33102113", "source": "survey"}}, {"type": "node", "id": 11346188829, "lat": 51.5151644, "lon": -0.1440947, "tags": {"check_date": "2025-12-23", "name": "Steve Madden", "shop": "shoes"}}, {"type": "node", "id": 11854340464, "lat": 51.5134381, "lon": -0.1448486, "tags": {"amenity": "cafe", "check_date": "2026-06-08", "name": "Hagen"}}, {"type": "node", "id": 12083746970, "lat": 51.5135851, "lon": -0.1416159, "tags": {"amenity": "cafe", "brand": "Heytea", "brand:en": "Heytea", "brand:wikidata": "Q60875376", "brand:zh": "\u559c\u8336", "cuisine": "bubble_tea", "name": "Heytea", "name:en": "Heytea", "name:zh": "\u559c\u8336", "takeaway": "yes"}}, {"type": "node", "id": 12168424196, "lat": 51.5143601, "lon": -0.1457687, "tags": {"check_date": "2024-09-10", "name": "Toast", "shop": "clothes"}}, {"type": "node", "id": 12168424197, "lat": 51.5133405, "lon": -0.1457565, "tags": {"check_date": "2024-09-10", "name": "The Diamond Lab", "shop": "jewelry"}}, {"type": "node", "id": 12168431707, "lat": 51.5140536, "lon": -0.1431028, "tags": {"amenity": "cafe", "check_date": "2024-09-10", "name": "Nathalie"}}, {"type": "node", "id": 12168431708, "lat": 51.5142492, "lon": -0.1431906, "tags": {"brand": "Porcelanosa", "brand:wikidata": "Q3088948", "check_date": "2024-09-10", "name": "Porcelanosa", "shop": "tiles"}}, {"type": "node", "id": 12168431709, "lat": 51.5143806, "lon": -0.1444036, "tags": {"amenity": "fast_food", "brand": "LEON", "brand:wikidata": "Q6524851", "check_date": "2025-12-23", "cuisine": "burger;sandwich", "name": "LEON", "takeaway": "yes", "website": "https://leon.co/restaurants/hanover-square/"}}, {"type": "node", "id": 12207162358, "lat": 51.5139174, "lon": -0.1446517, "tags": {"amenity": "ticket_validator", "barrier": "gate", "indoor": "yes"}}, {"type": "node", "id": 12398066562, "lat": 51.513366, "lon": -0.1443012, "tags": {"amenity": "restaurant", "name": "Dosa"}}, {"type": "node", "id": 12710173880, "lat": 51.5139549, "lon": -0.1419546, "tags": {"amenity": "bicycle_parking", "covered": "no"}}, {"type": "node", "id": 12798234936, "lat": 51.5124475, "lon": -0.1443651, "tags": {"check_date": "2026-06-08", "name": "Delvaux", "shop": "clothes"}}, {"type": "node", "id": 12924646229, "lat": 51.5146624, "lon": -0.1420411, "tags": {"name": "Reg n' Stop Cr\u00eaperie", "shop": "kiosk"}}, {"type": "node", "id": 12924651264, "lat": 51.513881, "lon": -0.1415073, "tags": {"amenity": "waste_basket"}}, {"type": "node", "id": 13009553204, "lat": 51.5155539, "lon": -0.1443945, "tags": {"addr:city": "London", "addr:housenumber": "9", "addr:postcode": "W1G 0BD", "addr:street": "Holles Street", "amenity": "food_court", "check_date": "2025-07-18", "internet_access": "wlan", "internet_access:fee": "customers", "level": "1", "name": "Market Halls", "payment:apple_pay": "yes", "payment:cash": "yes", "payment:contactless": "yes", "payment:credit_cards": "yes", "payment:debit_cards": "yes", "payment:google_pay": "yes"}}, {"type": "node", "id": 13019224977, "lat": 51.5150287, "lon": -0.1422491, "tags": {"brand": "Nike", "brand:wikidata": "Q483915", "check_date": "2025-07-23", "name": "Nike", "shop": "clothes"}}, {"type": "node", "id": 13019226255, "lat": 51.514465, "lon": -0.1420259, "tags": {"check_date": "2025-07-23", "name": "Free People", "shop": "clothes"}}, {"type": "node", "id": 13019228857, "lat": 51.5141639, "lon": -0.1418476, "tags": {"check_date": "2025-07-23", "name": "Paul & Shark", "shop": "clothes"}}, {"type": "node", "id": 13031309810, "lat": 51.5152165, "lon": -0.1436242, "tags": {"addr:city": "London", "addr:street": "Oxford Street", "brand": "Pop Mart", "brand:wikidata": "Q97180096", "level": "0", "name": "Pop Mart", "shop": "toys"}}, {"type": "node", "id": 13344543328, "lat": 51.5138214, "lon": -0.1458294, "tags": {"addr:city": "London", "addr:housenumber": "72", "addr:postcode": "W1S 1RR", "addr:street": "New Bond Street", "brand": "Bang & Olufsen", "brand:wikidata": "Q790020", "contact:phone": "+44 20 3931 1296", "contact:website": "https://stores.bang-olufsen.com/en/united-kingdom/london/72-new-bond-street", "name": "Bang & Olufsen", "opening_hours": "Mo-Sa 10:00-19:00; Th 10:00-20:00; Su 11:30-18:00", "shop": "hifi"}}, {"type": "node", "id": 13580724444, "lat": 51.5136405, "lon": -0.1456513, "tags": {"shop": "clothes"}}, {"type": "node", "id": 13580724445, "lat": 51.5133901, "lon": -0.145357, "tags": {"check_date": "2026-02-19", "name": "Canali", "shop": "clothes"}}, {"type": "node", "id": 13580724446, "lat": 51.5137107, "lon": -0.1457126, "tags": {"brand": "Hackett London", "brand:wikidata": "Q1136426", "check_date": "2026-02-19", "clothes": "men", "name": "Hackett London", "shop": "clothes"}}, {"type": "node", "id": 13580724447, "lat": 51.5134464, "lon": -0.1454147, "tags": {"check_date": "2026-02-19", "name": "Opera Gallery", "shop": "yes"}}, {"type": "node", "id": 13580724449, "lat": 51.5135674, "lon": -0.1455562, "tags": {"check_date": "2026-02-19", "name": "dsquared2", "shop": "clothes"}}, {"type": "node", "id": 13580724450, "lat": 51.512104, "lon": -0.1440436, "tags": {"check_date": "2026-02-19", "name": "Loewe", "shop": "clothes"}}, {"type": "node", "id": 13580724452, "lat": 51.5137657, "lon": -0.1457717, "tags": {"check_date": "2026-02-19", "name": "Pronovias", "shop": "clothes"}}, {"type": "node", "id": 13580724456, "lat": 51.5141404, "lon": -0.1462074, "tags": {"check_date": "2026-02-19", "name": "oddmuse", "shop": "clothes"}}, {"type": "node", "id": 13580933215, "lat": 51.5141998, "lon": -0.1462642, "tags": {"shop": "vacant"}}, {"type": "node", "id": 13585200374, "lat": 51.514214, "lon": -0.1466673, "tags": {"addr:city": "London", "addr:postcode": "W1S 1SH", "check_date": "2026-02-19", "name": "Sakar\u00e9", "shop": "cosmetics", "website": "https://www.sakare.com/"}}, {"type": "node", "id": 13585200375, "lat": 51.5142621, "lon": -0.1467104, "tags": {"addr:city": "London", "addr:housenumber": "92", "addr:postcode": "W1S 1SQ", "addr:street": "New Bond Street", "shop": "clothes"}}, {"type": "node", "id": 13585200377, "lat": 51.5140531, "lon": -0.1468388, "tags": {"addr:city": "London", "addr:housenumber": "3", "addr:postcode": "W1S 1LA", "addr:street": "Blenheim Street", "amenity": "restaurant", "cuisine": "italian", "fhrs:confidence_management": "10", "fhrs:hygiene": "10", "fhrs:id": "411354", "fhrs:local_authority_id": "00343/0003/0/000", "fhrs:rating": "3", "fhrs:structural": "5", "level": "0", "name": "Il Pizzaiolo", "source": "photograph", "source:addr": "FSA Food Hygiene Ratings Database", "source:postcode": "FSA Food Hygiene Ratings Database", "website": "http://www.ilpizzaiolo.co.uk/", "wheelchair": "yes"}}, {"type": "node", "id": 13922167891, "lat": 51.5137321, "lon": -0.1448565, "tags": {"addr:housenumber": "4", "addr:street": "Medici Courtyard", "amenity": "restaurant", "check_date": "2026-06-09", "name": "Caviar Bar", "opening_hours": "Mo-Fr 12:00-22:00; Sa 11:00-22:00; Su off", "payment:cash": "yes", "payment:credit_cards": "yes", "payment:debit_cards": "yes", "wheelchair": "yes"}}, {"type": "way", "id": 38310265, "center": {"lat": 51.5125669, "lon": -0.1427854}, "nodes": [452222408, 5643013091, 5643013090, 5643013099, 452222411, 5643013089, 5643013088, 5643013092, 5643013087, 5643013086, 452222414, 5643013085, 5643013084, 452222415, 452222408], "tags": {"addr:city": "London", "addr:country": "GB", "addr:street": "St George Street", "amenity": "place_of_worship", "architect": "John James", "architect:wikidata": "Q6241488", "building": "church", "check_date": "2025-11-11", "denomination": "anglican", "diocese": "Diocese of London", "heritage": "2", "heritage:operator": "he", "heritage:website": "https://historicengland.org.uk/listing/the-list/list-entry/1235638", "inscription_date": "1958-02-24", "listed_status": "Grade I", "name": "Saint George's Hanover Square", "parish": "St. George, Hanover Square with St. Mark", "ref:GB:nhle": "1235638", "religion": "christian", "source:heritage": "Historic England", "start_date": "1725", "website": "https://www.stgeorgeshanoversquare.org/", "wikidata": "Q3495317", "wikipedia": "en:St George's, Hanover Square", "year_of_construction": "1721\u20131725"}}, {"type": "way", "id": 40863715, "center": {"lat": 51.5139409, "lon": -0.1459776}, "nodes": [2558564446, 3454674488, 497233318, 2558564456, 2558564446], "tags": {"addr:city": "London", "addr:housenumber": "74", "addr:postcode": "W1S 1RT", "addr:street": "New Bond Street", "building": "yes", "building:levels": "5", "building:material": "stone", "check_date": "2024-09-10", "name": "Watches & Jewellery Of Bond Street", "ref:GB:uprn": "10033538955;10033582871;10033630197;100023476589;100022783147;10033568480;10033538954", "shop": "watches"}}, {"type": "way", "id": 40863717, "center": {"lat": 51.5127185, "lon": -0.1444812}, "nodes": [3454789381, 3454789377, 3454789369, 3454789376, 3454789379, 3454789381], "tags": {"addr:city": "London", "addr:housenumber": "51-52", "addr:street": "New Bond Street", "brand": "Emporio Armani", "brand:wikidata": "Q3497483", "brand:wikipedia": "ast:Emporio Armani", "building": "yes", "building:levels": "5", "building:material": "stone", "check_date": "2025-04-29", "name": "Emporio Armani", "name:zh": "\u963f\u739b\u5c3c\u90a6\u5fb7\u8857\u5206\u5e97", "phone": "+44 20 7491 8080", "shop": "clothes", "website": "https://www.armani.com/"}}, {"type": "way", "id": 45405645, "center": {"lat": 51.5154247, "lon": -0.1452076}, "nodes": [577377389, 4114911453, 577377390, 8097134892, 7503229409, 6206953762, 577377391, 577377392, 7503229411, 7503229398, 577377389], "tags": {"addr:city": "London", "addr:housenumber": "300", "addr:postcode": "W1C 1DX", "addr:street": "Oxford Street", "brand": "John Lewis", "brand:wikidata": "Q1918981", "brand:wikipedia": "en:John Lewis & Partners", "building": "yes", "building:levels": "8", "changing_table": "yes", "check_date": "2025-05-23", "contact:website": "https://www.johnlewis.com/our-shops/oxford-street", "fhrs:id": "427720", "name": "John Lewis", "official_name": "John Lewis & Partners", "opening_hours": "Mo-Sa 09:30-20:00; Su 11:30-18:00", "roof:colour": "grey", "shop": "department_store", "toilets": "yes", "toilets:wheelchair": "yes", "wheelchair": "yes"}}, {"type": "way", "id": 202193348, "center": {"lat": 51.5138017, "lon": -0.1417725}, "nodes": [2121751897, 2121751899, 2121751891, 2121751882, 2121751876, 2121751871, 2121751865, 2121751873, 2121751856, 2121751897], "tags": {"addr:city": "London", "addr:country": "GB", "addr:housenumber": "19-20", "addr:postcode": "W1S 1YR", "addr:street": "Hanover Street", "amenity": "bar", "brand": "Slug and Lettuce", "brand:wikidata": "Q7542224", "building": "yes", "check_date": "2024-09-10", "cocktails": "yes", "food": "yes", "name": "The Slug and Lettuce", "operator": "Stonegate", "operator:wikidata": "Q7619176", "ref:GB:uprn": "100023470826;10033629623;10033570745;10033629624;10033628254;10033628255", "source": "Bing;survey", "website": "https://www.slugandlettuce.co.uk/hanover-street"}}, {"type": "way", "id": 202193352, "center": {"lat": 51.5137159, "lon": -0.1421363}, "nodes": [2121751879, 2121751885, 2121751821, 2121751815, 2121751839, 2121751828, 2121751879], "tags": {"addr:city": "London", "addr:country": "GB", "addr:housenumber": "15-15a", "addr:postcode": "W1S 1YA", "addr:street": "Hanover Street", "brand": "Ryman", "brand:wikidata": "Q7385188", "brand:wikipedia": "en:Ryman", "building": "retail", "building:levels": "4", "check_date": "2024-08-20", "contact:website": "https://www.ryman.co.uk/storefinder/ryman-hanover-street/", "name": "Ryman", "opening_hours": "Mo-Fr 09:00-18:00; Sa 09:30-18:00; Su 11:00-17:00", "roof:levels": "1", "shop": "stationery", "source": "Bing;survey"}}, {"type": "way", "id": 208908055, "center": {"lat": 51.5139743, "lon": -0.147048}, "nodes": [2191620874, 2191620877, 2191620875, 2191620880, 2191620873, 2191620870, 2191620871, 2191620874], "tags": {"addr:city": "London", "addr:country": "GB", "addr:housename": "Blenheim House", "addr:housenumber": "1", "addr:street": "Woodstock Street", "amenity": "restaurant", "building": "yes", "building:levels": "4", "building:material": "brick", "check_date": "2024-11-17", "contact:instagram": "https://www.instagram.com/drunchlondon", "name": "Drunch", "phone": "+44 7535 554532", "source": "Bing;survey", "toilets": "yes", "toilets:access": "customers", "toilets:wheelchair": "no", "website": "https://drunch.co.uk/mayfair-2/", "wheelchair": "limited"}}, {"type": "way", "id": 208908057, "center": {"lat": 51.5141277, "lon": -0.1466884}, "nodes": [452228363, 2191620899, 2191620905, 2191620902, 2191620901, 2191620891, 2191620895, 2191620892, 2191620896, 2191620894, 452228363], "tags": {"addr:city": "London", "addr:country": "GB", "addr:housenumber": "94", "addr:street": "New Bond Street", "building": "yes", "check_date": "2026-02-19", "name": "Shapero Rare Books & Art Gallery", "shop": "antiques", "source": "Bing;survey"}}, {"type": "way", "id": 208908061, "center": {"lat": 51.5140032, "lon": -0.1469774}, "nodes": [2191620874, 2191620871, 2191620872, 2191620883, 13585200376, 5788665412, 2191620881, 2191620878, 2191620874], "tags": {"addr:city": "London", "addr:country": "GB", "addr:housenumber": "5", "addr:postcode": "W1S 1LD", "addr:street": "Blenheim Street", "building": "retail", "building:colour": "white", "building:levels": "5", "building:material": "plaster", "name": "New Bond Street Pawnbrokers", "ref:GB:uprn": "10033590508;10091967243;100023476560;10033590502;10033590503;10033590504;10033590500", "shop": "pawnbroker", "source": "Bing;survey", "website": "https://www.newbondstreetpawnbrokers.com/"}}, {"type": "way", "id": 217244522, "center": {"lat": 51.5139923, "lon": -0.1460015}, "nodes": [2265327355, 372515793, 497233318, 2558564456, 2265327357, 2265327355], "tags": {"addr:city": "London", "addr:housenumber": "75", "addr:postcode": "W1S 1RU", "addr:street": "New Bond Street", "building": "retail", "building:levels": "5", "building:material": "stone", "check_date": "2024-09-10", "name": "Joseph Cheaney & Sons", "old_name": "Leonidas", "ref:GB:uprn": "10033538957;10033538956;100023608377;100023608379;100023608378;100023608380;10033584494;100023476529", "shop": "shoes"}}, {"type": "way", "id": 249211261, "center": {"lat": 51.514038, "lon": -0.145796}, "nodes": [2558564460, 2558564458, 497233315, 3454675006, 2265327355, 2265327357, 2558564456, 2558564446, 2558564450, 2558564449, 9340771085, 2558564460], "tags": {"addr:city": "London", "addr:housenumber": "11-16", "addr:postcode": "W1S 1AR", "addr:street": "Dering Street", "amenity": "pub", "building": "yes", "check_date": "2024-09-10", "fhrs:confidence_management": "5", "fhrs:hygiene": "5", "fhrs:id": "428043", "fhrs:local_authority_id": "01144/0011/0/000", "fhrs:rating": "5", "fhrs:structural": "5", "food": "yes", "name": "Bonds", "phone": "+44 20 7629 0531", "real_ale": "yes", "source:addr": "FSA Food Hygiene Ratings Database", "source:postcode": "FSA Food Hygiene Ratings Database", "website": "https://www.stonegatepubs.com/locations/craft-pubs/bondslondon"}}, {"type": "way", "id": 249211262, "center": {"lat": 51.5123227, "lon": -0.1437554}, "nodes": [2558564440, 452235961, 2558564428, 2558564427, 2558564429, 2558564432, 2558564440], "tags": {"addr:city": "London", "addr:housenumber": "47", "addr:postcode": "W1S 2PG", "addr:street": "Maddox Street", "amenity": "restaurant", "brand": "Browns", "brand:wikidata": "Q4976672", "brand:wikipedia": "en:Browns Restaurants", "building": "yes", "building:levels": "5", "cuisine": "british", "fhrs:confidence_management": "5", "fhrs:hygiene": "5", "fhrs:id": "427703", "fhrs:local_authority_id": "00115/0047/0/001", "fhrs:rating": "4", "fhrs:structural": "10", "name": "Browns", "ref:GB:uprn": "10033537748;100023470902;10033583817;10033583828;10033583816;10033524841;10033524840;10033630766;10033524844;10033630765;10033524843;10033524842;10033583818;10033524839", "source:addr": "FSA Food Hygiene Ratings Database", "source:postcode": "FSA Food Hygiene Ratings Database", "website": "https://www.browns-restaurants.co.uk/restaurants/london/mayfair"}}, {"type": "way", "id": 249211263, "center": {"lat": 51.5142132, "lon": -0.1458846}, "nodes": [2558564470, 2558564477, 292902272, 2558564469, 2558564465, 2558564463, 2558564470], "tags": {"addr:city": "London", "addr:housenumber": "8", "addr:street": "Dering Street", "amenity": "pub", "brand": "Greene King", "brand:wikidata": "Q5564162", "building": "retail", "building:colour": "white", "building:levels": "4", "building:material": "plaster", "check_date": "2026-01-30", "food": "yes", "name": "Duke of York", "operator": "Spirit Pub Company", "phone": "+44 20 7629 0319", "real_ale": "yes", "ref:GB:uprn": "10033646688;100022741723", "website": "https://www.greeneking-pubs.co.uk/pubs/greater-london/duke-of-york", "wheelchair": "no", "wheelchair:description": "Step at entrance doors"}}, {"type": "way", "id": 249211264, "center": {"lat": 51.5123124, "lon": -0.1438327}, "nodes": [452235961, 2558564438, 3456413508, 3456413497, 2558564426, 2558564428, 452235961], "tags": {"addr:city": "London", "addr:housenumber": "49", "addr:postcode": "W1S 2PQ", "addr:street": "Maddox Street", "amenity": "cafe", "building": "yes", "building:levels": "4", "name": "Hamilton's Cafe", "ref:GB:uprn": "100023470878;10033583815;100023607242;10033583823;10033583822;10033583829;10033537750;10091858092", "source": "photograph"}}, {"type": "way", "id": 249211265, "center": {"lat": 51.5141738, "lon": -0.1459729}, "nodes": [2558564463, 2265321266, 2265321271, 2558564470, 2558564463], "tags": {"addr:city": "London", "addr:housenumber": "9", "addr:postcode": "W1S 1AG", "addr:street": "Dering Street", "building": "retail", "building:levels": "4", "check_date": "2024-09-10", "email": "info@postcardteas.com", "name": "Postcard Teas", "opening_hours": "Mo-Sa 10:30-18:30", "phone": "+44 20 7629 3654", "ref:GB:uprn": "100023470756", "shop": "tea", "source": "survey", "website": "https://www.postcardteas.com/", "wikidata": "Q26319776"}}, {"type": "way", "id": 272006368, "center": {"lat": 51.5136867, "lon": -0.1415683}, "nodes": [2769358830, 2769358825, 5631595538, 2769358823, 2769358827, 2769358817, 2947858557, 2769358813, 2769358815, 5737018749, 2769358821, 5737018748, 497233227, 2769358830], "tags": {"addr:city": "London", "addr:housenumber": "223", "addr:street": "Regent Street", "check_date": "2025-06-18", "level": "0", "name": "Tory Burch", "phone": "+44 20 7495 7723", "shop": "clothes", "source": "photograph", "website": "https://www.toryburch.co.uk/", "wheelchair": "limited"}}, {"type": "way", "id": 291263216, "center": {"lat": 51.5142504, "lon": -0.1420952}, "nodes": [2047806114, 2946815191, 2946815185, 2946815180, 2047806125, 2047806114], "tags": {"addr:city": "London", "addr:housenumber": "235", "addr:postcode": "W1B 2EL", "addr:street": "Regent Street", "branch": "Regent Street", "brand": "Apple Store", "brand:wikidata": "Q421253", "brand:wikipedia": "en:Apple Store", "check_date": "2025-07-23", "check_date:opening_hours": "2024-10-05", "level": "0", "name": "Apple Store", "opening_hours": "Mo-Fr 10:00-21:00; Sa 10:00-20:00; Su 12:00-18:00", "phone": "+44 20 7153 9000", "shop": "electronics", "short_name": "Apple", "website": "https://www.apple.com/uk/retail/regentstreet/", "wheelchair": "yes", "wikidata": "Q55696161"}}, {"type": "way", "id": 291263220, "center": {"lat": 51.5144728, "lon": -0.1422037}, "nodes": [497233179, 2047806116, 2946815218, 2946815202, 2946815215, 497233179], "tags": {"building": "yes", "building:levels": "5", "level": "0", "old_name": "Karen Millen", "shop": "vacant", "was:shop": "clothes", "wheelchair": "limited"}}, {"type": "way", "id": 291263225, "center": {"lat": 51.5144545, "lon": -0.1438654}, "nodes": [2946815209, 2946815228, 2946815224, 497232701, 2946815209], "tags": {"addr:city": "London", "addr:floor": "0", "addr:housename": "Lilly House", "addr:housenumber": "13", "addr:postcode": "W1S 1HN", "addr:street": "Hanover Square", "amenity": "fast_food", "brand": "Pret A Manger", "brand:wikidata": "Q2109109", "brand:wikipedia": "en:Pret a Manger", "check_date": "2025-12-23", "contact:website": "https://locations.pret.co.uk/london/13-hanover-square", "cuisine": "sandwich", "fhrs:id": "433687", "indoor_seating": "yes", "level": "-1;0", "name": "Pret A Manger", "outdoor_seating": "yes", "payment:american_express": "yes", "short_name": "Pret", "source": "photograph", "source:addr": "FHRS Open Data", "takeaway": "yes"}}, {"type": "way", "id": 291263226, "center": {"lat": 51.5143396, "lon": -0.1425087}, "nodes": [2849067581, 2946815183, 2946815185, 2946815191, 2946815202, 2946815215, 497233180, 2946815195, 2849067581], "tags": {"addr:city": "London", "addr:housenumber": "22-23", "addr:postcode": "W1B 2LX", "addr:street": "Princes Street", "amenity": "cafe", "brand": "Starbucks", "brand:wikidata": "Q37158", "brand:wikipedia": "en:Starbucks", "building": "yes", "building:levels": "5", "cuisine": "coffee_shop", "name": "Starbucks", "official_name": "Starbucks Coffee", "payment:american_express": "yes", "ref:GB:uprn": "10033656122", "takeaway": "yes", "wheelchair": "limited"}}, {"type": "way", "id": 291293251, "center": {"lat": 51.5146742, "lon": -0.1424933}, "nodes": [2947327413, 2947327409, 452216986, 2947327398, 2947327413], "tags": {"addr:city": "London", "addr:housenumber": "2", "addr:postcode": "W1B 2LB", "addr:street": "Princes Street", "amenity": "restaurant", "building": "retail", "building:levels": "5", "building:material": "stone", "cuisine": "italian", "description": "\"Ristorante & Pizzeria\"", "fhrs:id": "411780", "name": "Bar Remo", "phone": "+44 20 7629 1715", "ref:GB:uprn": "10033643994;10033643995;10033643996;100023470555;10033643997;10033541689;10033587322;10033541690", "source": "Bing;photograph", "source:addr": "extrapolation", "website": "http://www.barremo.me/"}}, {"type": "way", "id": 291293252, "center": {"lat": 51.5146513, "lon": -0.1426534}, "nodes": [2947327411, 2947327407, 452217278, 2947327396, 2947327411], "tags": {"addr:city": "London", "addr:housenumber": "4", "addr:postcode": "W1B 2LB", "addr:street": "Princes Street", "amenity": "restaurant", "building": "retail", "building:levels": "4", "building:material": "brick", "cuisine": "japanese", "fhrs:confidence_management": "10", "fhrs:hygiene": "10", "fhrs:id": "411782", "fhrs:local_authority_id": "00554/0004/0/002", "fhrs:rating": "3", "fhrs:structural": "10", "name": "Chisou", "roof:levels": "1", "source": "Bing;photograph;tags copied from replaced node", "source:addr": "FSA Food Hygiene Ratings Database", "source:postcode": "FSA Food Hygiene Ratings Database", "website": "https://chisourestaurant.com/"}}, {"type": "way", "id": 291293253, "center": {"lat": 51.5146891, "lon": -0.1425884}, "nodes": [2947327409, 2947327418, 2947327416, 2947327411, 2947327396, 452216986, 2947327409], "tags": {"addr:city": "London", "addr:housenumber": "3", "addr:street": "Princes Street", "amenity": "fast_food", "building": "retail", "building:levels": "5", "building:material": "stone", "cuisine": "sushi", "name": "Go Chisou", "phone": "+44 20 7629 0029", "source": "Bing;photograph", "source:addr": "extrapolation", "website": "http://www.gochisoumayfair.co.uk/"}}, {"type": "way", "id": 291293257, "center": {"lat": 51.5146742, "lon": -0.1424933}, "nodes": [2947327413, 2947327409, 452216986, 2947327398, 2947327413], "tags": {"level": "1", "name": "Mac1", "shop": "computer", "source": "photograph", "website": "https://www.mac1.net/"}}, {"type": "way", "id": 291293258, "center": {"lat": 51.5146705, "lon": -0.1427531}, "nodes": [2947327407, 2947327419, 2947327417, 452217455, 452217278, 2947327407], "tags": {"addr:city": "London", "addr:housenumber": "5", "addr:postcode": "W1B 2LF", "addr:street": "Princes Street", "amenity": "restaurant", "building": "terrace", "building:colour": "white", "building:levels": "4", "building:material": "plaster", "cuisine": "british", "fhrs:confidence_management": "5", "fhrs:hygiene": "10", "fhrs:id": "411783", "fhrs:local_authority_id": "00554/0005/0/004", "fhrs:rating": "3", "fhrs:structural": "10", "name": "Stem", "ref:GB:uprn": "10033620304;100022794300;100023470722;100023470560;10033570743;100022794298;100022794299", "source": "Bing;photograph", "source:addr": "FSA Food Hygiene Ratings Database", "source:postcode": "FSA Food Hygiene Ratings Database", "website": "https://stem-byneo.co.uk/", "wikidata": "Q27081614"}}, {"type": "way", "id": 291293259, "center": {"lat": 51.514589, "lon": -0.1430767}, "nodes": [2947327399, 2947327404, 2947327397, 2946815229, 2947327393, 2947327399], "tags": {"addr:city": "London", "addr:housenumber": "9", "addr:postcode": "W1B 2LQ", "addr:street": "Princes Street", "branch": "Charity Shop", "brand": "The Salvation Army", "brand:wikidata": "Q188307", "brand:wikipedia": "en:The Salvation Army", "building": "yes", "building:levels": "5", "building:material": "brick", "name": "The Salvation Army", "ref:GB:uprn": "10033637001;10033579592;10033587333;10033587324;10033587335;10033587337;10033637000;10033629517", "shop": "charity", "source": "Bing;photograph"}}, {"type": "way", "id": 291293260, "center": {"lat": 51.5147697, "lon": -0.1431545}, "nodes": [2947327425, 7551807180, 2947327426, 2947327424, 7551807173, 2947327427, 3378998214, 2947327415, 2947327412, 2947327408, 2947327406, 2947327402, 2947327403, 2947327394, 2947327393, 2947327399, 2947327401, 2947327404, 2947327397, 2947327400, 3378998207, 7551807175, 5613503135, 7551807182, 7551807183, 7551807181, 2947327425], "tags": {"addr:city": "London", "addr:country": "GB", "addr:housenumber": "275", "addr:postcode": "W1C 2DJ", "addr:street": "Oxford Street", "amenity": "place_of_worship", "building": "church", "denomination": "salvation_army", "email": "regent.hall@salvationarmy.org.uk", "name": "The Salvation Army Regent Hall", "phone": "+44 20 7629 5424", "religion": "christian", "source": "Bing;photograph", "website": "http://regenthall.co.uk/", "wheelchair": "yes", "wikidata": "Q7308084", "wikipedia": "en:Regent Hall"}}, {"type": "way", "id": 291333393, "center": {"lat": 51.5147915, "lon": -0.1421625}, "nodes": [2947858575, 5613503133, 497233000, 5613503132, 497233012, 2947858574, 2947858575], "tags": {"addr:city": "London", "addr:housenumber": "249-251", "addr:postcode": "W1B 2EP", "addr:street": "Regent Street", "building": "yes", "building:levels": "5", "building:material": "stone", "check_date": "2025-07-23", "name": "Onitsuka", "ref:GB:uprn": "10033542288;10033588791", "roof:levels": "1", "shop": "shoes"}}, {"type": "way", "id": 291333398, "center": {"lat": 51.5140519, "lon": -0.1419239}, "nodes": [2946815179, 2047806101, 497233177, 2947858562, 5613503138, 2946815179], "tags": {"addr:city": "London", "addr:housenumber": "229", "addr:street": "Regent Street", "brand": "Longchamp", "brand:wikidata": "Q1869471", "check_date": "2025-07-23", "level": "0", "name": "Longchamp", "shop": "fashion_accessories", "source": "photograph"}}, {"type": "way", "id": 291333400, "center": {"lat": 51.5138421, "lon": -0.1416162}, "nodes": [2121751899, 497233228, 5631595536, 5631595537, 2121751902, 2121751706, 2769358838, 2121751891, 2121751899], "tags": {"addr:city": "London", "addr:housenumber": "227", "addr:street": "Regent Street", "beauty": "spa", "brand": "Molton Brown", "brand:wikidata": "Q17100584", "level": "0", "name": "Molton Brown", "shop": "cosmetics", "source": "photograph", "website": "https://www.moltonbrown.co.uk/"}}, {"type": "way", "id": 302690910, "center": {"lat": 51.5134534, "lon": -0.1435514}, "nodes": [3069487458, 3069487451, 3069487454, 3069487464, 3069487458], "tags": {"amenity": "bicycle_parking", "bicycle_parking": "stands", "capacity": "12", "covered": "no", "supervised": "no"}}, {"type": "way", "id": 302690911, "center": {"lat": 51.5134519, "lon": -0.1436976}, "nodes": [3069487468, 3069487466, 3069487445, 3069487446, 3069487468], "tags": {"amenity": "motorcycle_parking", "covered": "no", "fee": "yes", "parking": "surface"}}, {"type": "way", "id": 302690912, "center": {"lat": 51.5133974, "lon": -0.1439082}, "nodes": [3069487434, 3069487441, 3069487452, 3069487467, 3069487442, 3069487434], "tags": {"amenity": "parking", "capacity": "6", "capacity:disabled": "0", "capacity:parent": "0", "capacity:women": "0", "fee": "yes", "lit": "yes"}}, {"type": "way", "id": 302690913, "center": {"lat": 51.5134239, "lon": -0.1437854}, "nodes": [3069487452, 3069487441, 3069487443, 3069487455, 3069487452], "tags": {"amenity": "motorcycle_parking", "covered": "no", "fee": "yes", "parking": "surface"}}, {"type": "way", "id": 302690914, "center": {"lat": 51.5133764, "lon": -0.14404}, "nodes": [3069487442, 3069487439, 3069487438, 3069487436, 3069487435, 3069482732, 3069487434, 3069487442], "tags": {"amenity": "motorcycle_parking", "fee": "yes", "parking": "surface"}}, {"type": "way", "id": 330873693, "center": {"lat": 51.5148552, "lon": -0.143528}, "nodes": [5613503137, 3357928308, 5614613561, 3378998205, 3378998204, 5613503137], "tags": {"addr:city": "London", "addr:postcode": "W1C 2DW", "building": "yes", "building:levels": "4", "check_date": "2025-12-23", "name": "Samsonite", "old_name": "Carpisa", "ref:GB:uprn": "100023469762", "roof:colour": "grey", "shop": "bag"}}, {"type": "way", "id": 330873698, "center": {"lat": 51.514877, "lon": -0.143404}, "nodes": [5614613561, 2913020601, 5613503135, 7551807175, 3378998207, 3378998205, 5614613561], "tags": {"addr:city": "London", "addr:housenumber": "283", "addr:postcode": "W1C 2DN", "addr:street": "Oxford Street", "brand": "Foot Locker", "brand:wikidata": "Q63335", "brand:wikipedia": "en:Foot Locker", "building": "yes", "building:colour": "white", "building:levels": "4", "check_date": "2025-12-23", "check_date:opening_hours": "2024-08-16", "name": "Foot Locker", "opening_hours": "Mo-Sa 10:00-21:00; Su 12:00-18:00", "phone": "+44 20 7499 7177", "ref:GB:uprn": "100023469600", "roof:colour": "grey", "shop": "shoes", "website": "https://stores.footlocker.co.uk/gb-lnd/london/283-oxford-street-185_31_04198.html", "wheelchair": "yes"}}, {"type": "way", "id": 338388731, "center": {"lat": 51.5141609, "lon": -0.14615}, "nodes": [3454675009, 2265321269, 3454675010, 2265321271, 3454675012, 3454675011, 3454675009], "tags": {"addr:city": "London", "addr:housenumber": "77", "addr:street": "New Bond Street", "building": "retail", "building:levels": "4", "building:material": "brick", "check_date": "2024-09-10", "clothes": "Cashmere", "name": "Johnstons of Elgin", "phone": "+44 20 7629 8983", "shop": "clothes", "website": "https://www.johnstonscashmere.com/", "wheelchair": "limited"}}, {"type": "way", "id": 338388743, "center": {"lat": 51.5137612, "lon": -0.1472308}, "nodes": [3454674468, 3454674473, 3454674479, 3454674470, 3454674467, 2191620862, 3454674468], "tags": {"addr:city": "London", "addr:housenumber": "22-23", "addr:street": "Woodstock Street", "amenity": "restaurant", "building": "retail", "cuisine": "japanese", "name": "Chisou Sushi & Izakaya", "phone": "+44 20 7629 3931", "website": "https://chisourestaurant.com/", "wheelchair": "yes"}}, {"type": "way", "id": 338388744, "center": {"lat": 51.5138255, "lon": -0.1473225}, "nodes": [3454674479, 3454674484, 3454674472, 3454674470, 3454674479], "tags": {"addr:city": "London", "addr:housenumber": "21", "addr:street": "Woodstock Street", "alt_name": "HFA", "building": "retail", "building:colour": "white", "building:levels": "4", "building:material": "plaster", "name": "Hanina Gallery", "shop": "art", "website": "http://www.haninafinearts.com/"}}, {"type": "way", "id": 338401302, "center": {"lat": 51.514226, "lon": -0.145529}, "nodes": [3454789802, 3454789804, 5616421410, 5616421409, 3454789802], "tags": {"check_date": "2024-09-10", "level": "0", "name": "Ronchini Gallery", "shop": "art", "website": "https://www.ronchinigallery.com/", "wikidata": "Q17019885"}}, {"type": "way", "id": 338401312, "center": {"lat": 51.5135593, "lon": -0.1445856}, "nodes": [3454787577, 9340771075, 3454787582, 3454789717, 3454789709, 3454787577], "tags": {"amenity": "bank", "building": "yes", "name": "UBL UK", "source": "Bing"}}, {"type": "way", "id": 338545378, "center": {"lat": 51.5122942, "lon": -0.1441571}, "nodes": [3456413511, 3456413506, 3456413501, 3456413496, 3456413507, 497233389, 3456413513, 3456413511], "tags": {"addr:city": "London", "addr:housenumber": "45-46", "addr:street": "New Bond Street", "brand": "Versace", "brand:wikidata": "Q696376", "building": "retail", "building:levels": "5", "building:material": "brick", "name": "Versace", "ref:GB:uprn": "100023470759;100023470956", "shop": "clothes"}}, {"type": "way", "id": 338545407, "center": {"lat": 51.5123364, "lon": -0.1439926}, "nodes": [3456413514, 3456413513, 3456413511, 3456413512, 3456413509, 3456413510, 3456413514], "tags": {"addr:city": "London", "addr:housenumber": "53", "addr:street": "Maddox Street", "building": "yes", "building:levels": "5", "building:material": "brick", "name": "Morelle Davidson", "shop": "jewelry", "website": "https://morelledavidson.com/"}}, {"type": "way", "id": 338545421, "center": {"lat": 51.5122111, "lon": -0.1440259}, "nodes": [3456413501, 3456413504, 3456413498, 3456413505, 3456413508, 3456413497, 3456413190, 3456413496, 3456413501], "tags": {"addr:city": "London", "addr:housenumber": "43-44", "addr:postcode": "W1S 2SF", "addr:street": "New Bond Street", "building": "retail", "building:levels": "5", "building:material": "stone", "ref:GB:uprn": "10033587958;10033587946;10033635490;10033525170;10033525169;10033635489;10033635488;100023608322;10033587944;100023476531;10033538921;10033538920", "shop": "watch"}}, {"type": "way", "id": 588205120, "center": {"lat": 51.5146841, "lon": -0.1445613}, "nodes": [5618166707, 5618803351, 5618166710, 5618166711, 5618166712, 5618166713, 2946815232, 5618166714, 5618166708, 5618166707], "tags": {"addr:city": "London", "addr:housenumber": "297", "addr:street": "Oxford Street", "brand": "Three", "brand:wikidata": "Q407009", "brand:wikipedia": "en:3 (telecommunications)", "building": "yes", "building:levels": "6", "check_date": "2025-03-07", "contact:website": "https://locator.three.co.uk/london-&-ni/london/297-oxford-street", "name": "Three.", "payment:american_express": "yes", "phone": "+44 20 7493 8014", "roof:colour": "grey", "shop": "mobile_phone"}}, {"type": "way", "id": 588205122, "center": {"lat": 51.5146201, "lon": -0.1449277}, "nodes": [5618204223, 7503229391, 2913014102, 7503229392, 5618166698, 5618204228, 2946815221, 5618204229, 2946815213, 5618166718, 7503229387, 5618204223], "tags": {"addr:city": "London", "addr:housenumber": "301-309", "addr:postcode": "W1C 2HW", "addr:street": "Oxford Street", "brand": "Jack & Jones", "brand:wikidata": "Q6077665", "building": "yes", "building:colour": "grey", "building:levels": "6", "building:material": "concrete", "name": "Jack & Jones", "ref:GB:uprn": "100023469628;10033643667;100023616793;10033588384", "roof:colour": "grey", "shop": "clothes"}}, {"type": "way", "id": 588205124, "center": {"lat": 51.514512, "lon": -0.1453708}, "nodes": [5618166697, 7503229396, 7503229395, 5618204233, 5621154326, 3454789810, 3454789807, 5618204234, 5618204235, 5618204236, 5618166701, 5618166702, 5618166705, 5618166697], "tags": {"addr:city": "London", "addr:housenumber": "311", "addr:postcode": "W1C 2HP", "addr:street": "Oxford Street", "brand": "Uniqlo", "brand:wikidata": "Q26070", "brand:wikipedia": "en:Uniqlo", "building": "yes", "check_date": "2026-01-30", "name": "Uniqlo", "opening_hours": "Mo-Sa 10:00-21:30; Su 11:30-18:30", "ref:GB:uprn": "100023469629;10033526900", "shop": "clothes", "website": "https://www.uniqlo.com/uk/en/content/store-locator.html?storeId=10700001", "wheelchair": "yes"}}, {"type": "way", "id": 588536983, "center": {"lat": 51.5146283, "lon": -0.1456713}, "nodes": [5618204233, 7503229397, 5621154324, 5621154325, 5621154326, 5618204233], "tags": {"addr:city": "London", "addr:housenumber": "313", "addr:postcode": "W1C 2HR", "addr:street": "Oxford Street", "brand": "Swatch", "brand:wikidata": "Q573422", "brand:wikipedia": "en:Swatch", "building": "yes", "building:levels": "4", "building:material": "brick", "check_date": "2025-05-23", "name": "Swatch", "phone": "+44 20 7499 8211", "ref:GB:uprn": "10033585504;10033634194;10033585505;10033634195;10033634193;100023469630", "roof:colour": "grey", "shop": "watches", "website": "https://www.swatch.com/", "wheelchair": "yes"}}, {"type": "way", "id": 589110788, "center": {"lat": 51.5139137, "lon": -0.1458454}, "nodes": [5625775022, 2558564449, 2558564450, 2558564446, 3454674488, 5625775021, 5625775022], "tags": {"addr:city": "London", "addr:housenumber": "73", "addr:postcode": "W1S 1RS", "addr:street": "New Bond Street", "building": "yes", "check_date": "2024-09-10", "name": "\u00c8sclot", "ref:GB:uprn": "100023608369;10033538949;10033584495;100023476590;100023608372;100023608371;100023608370;10033538950;10033538953;10033538952;10033538951", "shop": "clothes"}}, {"type": "way", "id": 589641506, "center": {"lat": 51.5128542, "lon": -0.1425971}, "nodes": [5630578560, 5630578552, 5634090301, 5630578561, 5630578559, 5630578560], "tags": {"addr:city": "London", "addr:housenumber": "38", "addr:postcode": "W1S 1PY", "addr:street": "Maddox Street", "amenity": "pub", "brand": "Greene King", "brand:wikidata": "Q5564162", "building": "yes", "name": "The Mason Arms", "phone": "+44 20 7491 7809", "ref:GB:uprn": "10033537745;10091855153;100023470763", "website": "https://www.greeneking-pubs.co.uk/pubs/greater-london/masons-arms-mayfair/"}}, {"type": "way", "id": 589738578, "center": {"lat": 51.5135839, "lon": -0.1416814}, "nodes": [2947858557, 5631620885, 5631620883, 2769358813, 2947858557], "tags": {"addr:city": "London", "addr:housenumber": "6-8", "addr:street": "Maddox Street", "brand": "Holland & Barrett", "brand:wikidata": "Q5880870", "brand:wikipedia": "en:Holland & Barrett", "building": "yes", "level": "0", "name": "Holland & Barrett", "phone": "+44 20 3205 1038", "shop": "health_food", "website": "https://www.hollandandbarrett.com/stores/maddox-street-3025/"}}, {"type": "way", "id": 590010015, "center": {"lat": 51.5132517, "lon": -0.1421362}, "nodes": [5634052804, 5630610423, 5634052805, 5630610431, 5634052804], "tags": {"addr:city": "London", "addr:housenumber": "20", "addr:postcode": "W1S 1PN", "addr:street": "Maddox Street", "amenity": "cafe", "building": "yes", "name": "L'Express", "phone": "+44 20 7493 8860", "ref:GB:uprn": "10033617028;10033617027;10033537734;10033537729;10033537728;10033617029;10033617030;10033587472;10033524902;10033524901;10033537733;10033537732;10033537731;10033556765;10033537730", "wheelchair": "yes"}}, {"type": "way", "id": 591177138, "center": {"lat": 51.5124419, "lon": -0.1432994}, "nodes": [5643518828, 5643531022, 5643531023, 5643531024, 5643518828], "tags": {"addr:city": "London", "addr:housenumber": "12", "addr:street": "St George Street", "amenity": "restaurant", "building": "yes", "name": "Wild Honey", "website": "https://www.wildhoneyrestaurant.co.uk/"}}, {"type": "way", "id": 607855075, "center": {"lat": 51.5126212, "lon": -0.145257}, "nodes": [5759851108, 5759851109, 5759851110, 5759851111, 5759950680, 5759851112, 5759851113, 5759851108], "tags": {"addr:city": "London", "addr:housenumber": "2", "addr:postcode": "W1S 1EX", "addr:street": "Lancashire Court", "beauty": "spa", "building": "yes", "name": "The House of ELEMIS", "phone": "+44 20 7499 4995", "ref:GB:uprn": "10033568316;10033547148", "shop": "beauty", "website": "https://www.elemis.com/house-of-elemis-london/"}}, {"type": "way", "id": 607855076, "center": {"lat": 51.5126826, "lon": -0.1453395}, "nodes": [5759851114, 5759851108, 5759851113, 5759851115, 5759851116, 5759851118, 5759851114], "tags": {"addr:city": "London", "addr:housenumber": "4", "addr:street": "Lancashire Court", "amenity": "bar", "building": "yes", "name": "Cartizze", "website": "https://mewsofmayfair.com/bar/mews-cocktail-bar/"}}, {"type": "way", "id": 607855077, "center": {"lat": 51.5127342, "lon": -0.1454304}, "nodes": [5759851117, 5759851114, 5759851118, 5759958579, 5759851119, 5759851117], "tags": {"addr:city": "London", "addr:housenumber": "4", "addr:postcode": "W1S 1EY", "addr:street": "Lancashire Court", "amenity": "restaurant", "building": "yes", "level": "1", "name": "Mews Pizza Co", "ref:GB:uprn": "10033550653", "website": "http://www.mayfairpizzaco.com/about.php"}}, {"type": "way", "id": 607868278, "center": {"lat": 51.512798, "lon": -0.1455206}, "nodes": [5759851119, 5759950652, 5761120728, 5759950653, 5759950663, 5759851117, 5759851119], "tags": {"addr:city": "London", "addr:housenumber": "6", "addr:street": "Lancashire Court", "amenity": "bar", "building": "yes", "description": "Wine Boutique and Private Rooms", "name": "La Cave"}}, {"type": "way", "id": 607868279, "center": {"lat": 51.5126389, "lon": -0.1455104}, "nodes": [5759950654, 5759950655, 5759950656, 5759950657, 5759950658, 5759950659, 5759950660, 5759950661, 5759950654], "tags": {"addr:city": "London", "addr:housenumber": "8-10", "addr:street": "Lancashire Court", "amenity": "restaurant", "building": "yes", "name": "Mews of Mayfair", "website": "http://mewsofmayfair.com/"}}, {"type": "way", "id": 607871715, "center": {"lat": 51.5127717, "lon": -0.1452387}, "nodes": [5759950681, 5759958578, 5759958579, 5759851118, 5759851116, 5759950681], "tags": {"addr:city": "London", "addr:housenumber": "119", "addr:street": "New Bond Street", "brand": "Montblanc", "brand:wikidata": "Q142691", "building": "yes", "check_date": "2026-06-08", "clothes": "accessories", "name": "Montblanc", "phone": "+44 20 7629 5883", "shop": "fashion_accessories", "website": "https://stores.montblanc.com/boutique/4330", "wheelchair": "limited"}}, {"type": "way", "id": 608131508, "center": {"lat": 51.5128408, "lon": -0.1463883}, "nodes": [5762151599, 5762161035, 5762161036, 5762161037, 5762151599], "tags": {"addr:city": "London", "addr:housenumber": "19", "addr:postcode": "W1K 4AS", "addr:street": "Avery Row", "building": "yes", "name": "Backstage Beauty", "ref:GB:uprn": "100023474143", "shop": "beauty"}}, {"type": "way", "id": 608184599, "center": {"lat": 51.5127174, "lon": -0.1460438}, "nodes": [5762689182, 5762689180, 5762689179, 5759950671, 5759950672, 5762689182], "tags": {"addr:city": "London", "addr:housenumber": "12-14", "addr:postcode": "W1K 4AW", "addr:street": "Avery Row", "building": "retail", "name": "CAROLINA WONG", "opening_hours": "Mo-Sa 10:30-18:30", "operator": "CAROLINA WONG", "payment:american_express": "yes", "payment:apple_pay": "yes", "payment:cash": "yes", "payment:contactless": "yes", "payment:credit_cards": "yes", "payment:debit_cards": "yes", "payment:mastercard": "yes", "payment:visa": "yes", "payment:visa_debit": "yes", "phone": "+447405887533", "shop": "jewelry"}}, {"type": "way", "id": 608184600, "center": {"lat": 51.512711, "lon": -0.1458775}, "nodes": [5762689182, 5762689184, 5762711120, 5762689185, 5762689186, 5762689187, 5759950666, 5759950674, 5759950673, 5762689182], "tags": {"addr:city": "London", "addr:housenumber": "11", "addr:postcode": "W1K 4AN", "addr:street": "Avery Row", "amenity": "pub", "brand": "Fuller's", "brand:wikidata": "Q5253950", "building": "yes", "name": "The Iron Duke", "ref:GB:uprn": "100023474346", "website": "https://www.irondukemayfair.co.uk/"}}, {"type": "way", "id": 663206786, "center": {"lat": 51.5153041, "lon": -0.1436168}, "nodes": [6208085691, 6208085692, 6208085693, 6208085694, 6208085691], "tags": {"amenity": "college", "building:levels": "8", "building:min_level": "3", "building:part": "yes", "height": "26", "min_height": "10", "name": "London College of Fashion", "operator": "University of the Arts London"}}, {"type": "way", "id": 663206787, "center": {"lat": 51.5155471, "lon": -0.1433502}, "nodes": [6208085695, 6208085696, 6208085701, 6208085697, 6208085698, 6208085699, 6208085695], "tags": {"addr:city": "London", "addr:housenumber": "252-258", "addr:street": "Oxford Street", "brand": "Reserved", "brand:wikidata": "Q21809354", "brand:wikipedia": "en:Reserved", "check_date": "2025-04-21", "name": "Reserved", "shop": "clothes"}}, {"type": "way", "id": 802152466, "center": {"lat": 51.5147704, "lon": -0.1444585}, "nodes": [5451391078, 7551815226, 7503227782, 5618166709, 5618166708, 5618166707, 7503227781, 5451391078], "tags": {"addr:city": "London", "addr:housenumber": "295", "addr:street": "Oxford Street", "brand": "Whittard of Chelsea", "brand:wikidata": "Q7996831", "name": "Whittard of Chelsea", "shop": "tea", "website": "https://stores.whittard.co.uk/whittard-of-chelsea-oxford-circus"}}, {"type": "way", "id": 802152467, "center": {"lat": 51.5146727, "lon": -0.1447028}, "nodes": [7503229389, 7503229388, 7503229387, 5618166718, 5618166717, 5618166711, 5618166710, 5618808036, 7503229389], "tags": {"addr:city": "London", "addr:housenumber": "299", "addr:street": "Oxford Street", "alt_name": "Moss Bros", "brand": "Moss", "brand:wikidata": "Q6916538", "brand:wikipedia": "en:Moss Bros Group", "check_date": "2022-10-28", "clothes": "men", "level": "0", "name": "Moss", "payment:american_express": "yes", "phone": "+44 20 7495 5265", "shop": "clothes", "website": "https://www.moss.co.uk/store/034-moss-bros-oxford-street-west"}}, {"type": "way", "id": 802152468, "center": {"lat": 51.5145481, "lon": -0.1451288}, "nodes": [5618166701, 5618166700, 7503229393, 5618204228, 5618166698, 3357923647, 5618166697, 5618166705, 5618166704, 5618166703, 5618166702, 5618166701], "tags": {"brand": "Stradivarius", "brand:wikidata": "Q3322945", "brand:wikipedia": "en:Stradivarius (clothing brand)", "check_date": "2026-01-30", "clothes": "women", "level": "0", "name": "Stradivarius", "phone": "+44 20 7499 5096", "shop": "clothes", "website": "https://www.stradivarius.com/gb/", "wheelchair": "yes"}}, {"type": "way", "id": 802152469, "center": {"lat": 51.5145663, "lon": -0.1459462}, "nodes": [3357928864, 7503229394, 5618204241, 5618204240, 7503229421, 7503229422, 3357928864], "tags": {"brand": "Massimo Dutti", "brand:wikidata": "Q788231", "name": "Massimo Dutti", "shop": "clothes"}}, {"type": "way", "id": 802152473, "center": {"lat": 51.5146, "lon": -0.1457914}, "nodes": [7503229422, 3357928864, 5621154325, 5621154324, 7503229420, 7503229422], "tags": {"brand": "Oysho", "brand:wikidata": "Q3327046", "name": "Oysho", "shop": "clothes"}}, {"type": "way", "id": 802152491, "center": {"lat": 51.5145026, "lon": -0.146477}, "nodes": [497233300, 5451391075, 497233294, 7503229454, 2379057657, 7503229455, 497233293, 497233304, 5623512312, 497233300], "tags": {"brand": "Abercrombie & Fitch", "brand:wikidata": "Q319344", "clothes": "men;women", "level": "0;1", "name": "Abercrombie & Fitch", "shop": "clothes"}}, {"type": "way", "id": 807554327, "center": {"lat": 51.515027, "lon": -0.1426125}, "nodes": [7551807169, 7551807167, 7551807166, 3357928846, 3357928346, 7551807169], "tags": {"addr:city": "London", "addr:housenumber": "259", "addr:street": "Oxford Street", "brand": "Pandora", "brand:wikidata": "Q2241604", "brand:wikipedia": "en:Pandora (jewelry)", "check_date": "2025-08-20", "contact:website": "https://stores.pandora.net/gb-lnd/london/pandora-jewellery-gb8db61773.html", "name": "Pandora", "payment:american_express": "yes", "phone": "+44 20 7409 2007", "shop": "jewelry"}}, {"type": "way", "id": 807554328, "center": {"lat": 51.5150177, "lon": -0.1426827}, "nodes": [3378998219, 7551807169, 3357928346, 7551807168, 3378998228, 3378998219], "tags": {"addr:city": "London", "addr:housenumber": "261", "addr:street": "Oxford Street", "brand": "Ecco", "brand:wikidata": "Q1280255", "brand:wikipedia": "en:ECCO", "check_date": "2025-08-20", "name": "Ecco", "phone": "+44 20 7495 4796", "shop": "shoes", "website": "https://gb.ecco.com/", "wheelchair": "yes"}}, {"type": "way", "id": 807554329, "center": {"lat": 51.5150013, "lon": -0.142795}, "nodes": [7551807171, 3378998219, 3378998228, 3357929230, 7551807172, 7551807171], "tags": {"addr:city": "London", "addr:housenumber": "263-265", "addr:street": "Oxford Street", "brand": "Skechers", "brand:wikidata": "Q2945643", "name": "Skechers", "shop": "shoes"}}, {"type": "way", "id": 807554330, "center": {"lat": 51.5149766, "lon": -0.1429607}, "nodes": [7551807172, 7551807171, 3378998214, 2947327427, 3378998227, 7551807170, 7551807172], "tags": {"level": "0", "name": "London Souvenirs", "shop": "gift"}}, {"type": "way", "id": 807554331, "center": {"lat": 51.5149888, "lon": -0.1430966}, "nodes": [7551807173, 2947327427, 3378998227, 7551807174, 7551807173], "tags": {"level": "0", "name": "Luggages & Souvenirs", "shop": "gift"}}, {"type": "way", "id": 807554332, "center": {"lat": 51.5149764, "lon": -0.143163}, "nodes": [7551807174, 7551807173, 2947327424, 2947327426, 7551807174], "tags": {"level": "0", "shop": "bag"}}, {"type": "way", "id": 807554335, "center": {"lat": 51.5149515, "lon": -0.1432927}, "nodes": [7551807184, 7551807183, 7551807181, 2947327425, 3357928351, 7551807184], "tags": {"addr:city": "London", "addr:housenumber": "277", "addr:street": "Oxford Street", "level": "0", "old_name": "Ernest Jones", "shop": "vacant"}}, {"type": "way", "id": 807554336, "center": {"lat": 51.5148272, "lon": -0.1437057}, "nodes": [5614975201, 3378998204, 5613503137, 5614963591, 5614963590, 7551815224, 5614975201], "tags": {"brand": "New Balance", "brand:wikidata": "Q742988", "brand:wikipedia": "en:New Balance", "check_date": "2025-12-23", "level": "0;1", "name": "New Balance", "phone": "+44 20 7499 8089", "shop": "shoes", "website": "https://www.newbalance.co.uk/"}}, {"type": "way", "id": 807554352, "center": {"lat": 51.5148384, "lon": -0.1438987}, "nodes": [3357928341, 7551815224, 5614963590, 7551815190, 452234984, 3357928341], "tags": {"brand": "EE", "brand:wikidata": "Q5322942", "brand:wikipedia": "en:EE Limited", "check_date": "2025-12-23", "name": "EE", "shop": "mobile_phone"}}, {"type": "way", "id": 807554353, "center": {"lat": 51.5148161, "lon": -0.1440407}, "nodes": [452234984, 3357928341, 7551815225, 5614975200, 5614975199, 5614975198, 452234984], "tags": {"addr:city": "London", "addr:housenumber": "291B", "addr:postcode": "W1C 2DT", "addr:street": "Oxford Street", "amenity": "fast_food", "brand": "McDonald's", "brand:wikidata": "Q38076", "brand:wikipedia": "en:McDonald's", "check_date": "2025-12-23", "check_date:opening_hours": "2024-08-31", "contact:website": "https://www.mcdonalds.com/gb/en-gb/location/westminster/291-oxford-st/291b-oxford-street/8260352.html", "cuisine": "burger", "drive_through": "no", "fhrs:id": "427721", "indoor_seating": "yes", "internet_access": "wlan", "name": "McDonald's", "opening_hours": "Mo-Th 06:00-23:45; Fr-Sa 06:00-02:15; Su 06:00-23:45", "phone": "+44 20 7409 0054", "self_service": "yes", "source:addr": "FHRS Open Data", "takeaway": "yes"}},