{"version": 0.6, "generator": "Overpass API 0.7.62.11 87bfad18", "osm3s": {"timestamp_osm_base": "2026-06-10T16:37:33Z", "copyright": "The data included in this document is from www.openstreetmap.org. The data is made available under ODbL."}, "elements": [{"type": "node", "id": 25530879, "lat": 51.4885694, "lon": -0.1206603, "tags": {"amenity": "post_box", "brand": "Royal Mail", "brand:wikidata": "Q638098", "brand:wikipedia": "en:Royal Mail", "check_date": "2024-03-17", "collection_times": "Mo-Fr 17:30; Sa 12:00", "colour": "red", "drive_through": "no", "operator": "Royal Mail", "operator:wikidata": "Q638098", "post_box:design": "type_a", "post_box:type": "pillar", "postal_code": "SE11", "ref": "SE11 26", "royal_cypher": "no", "source": "survey"}}, {"type": "node", "id": 313234121, "lat": 51.4886893, "lon": -0.1209019, "tags": {"addr:city": "London", "addr:housenumber": "112", "addr:postcode": "SE11 5ER", "addr:street": "Vauxhall Walk", "amenity": "pub", "brewery": "yes", "cuisine": "Spanish, British", "diet:vegetarian": "yes", "fhrs:authority": "Lambeth", "fhrs:id": "483811", "fhrs:inspectiondate": "2011-11-09", "fhrs:rating": "4", "indoor_seating": "yes", "name": "The Black Dog", "opening_hours": "Mo-Sa 12:00-23:30; Su 12:00-21:30", "outdoor_seating": "yes", "payment:cash": "no", "payment:credit_cards": "yes", "payment:debit_cards": "yes", "website": "https://theblackdogvauxhall.co.uk/", "wheelchair": "yes"}}, {"type": "node", "id": 345860170, "lat": 51.4866456, "lon": -0.1181468, "tags": {"amenity": "bicycle_parking", "bicycle_parking": "stands", "capacity": "4", "check_date:capacity": "2026-03-29", "covered": "no", "source": "survey ch"}}, {"type": "node", "id": 345864816, "lat": 51.4863939, "lon": -0.1198482, "tags": {"amenity": "post_box", "brand": "Royal Mail", "brand:wikidata": "Q638098", "brand:wikipedia": "en:Royal Mail", "collection_times": "Mo-Fr 17:30; Sa 12:00", "drive_through": "no", "operator": "Royal Mail", "operator:wikidata": "Q638098", "post_box:design": "type_a", "post_box:type": "pillar", "postal_code": "SE11", "ref": "SE11 5", "royal_cypher": "GVIR", "royal_cypher:wikidata": "Q33102169", "source": "survey"}}, {"type": "node", "id": 1667351698, "lat": 51.4880209, "lon": -0.1208462, "tags": {"amenity": "bicycle_rental", "bicycle_rental": "docking_station", "brand": "Santander Cycles", "brand:wikidata": "Q807961", "capacity": "24", "local": "Vauxhall", "name": "Vauxhall Walk", "network": "tfl_cycle_hire", "official_name": "Vauxhall Walk, Vauxhall", "official_ref": "437", "operator": "Serco", "operator:type": "private", "operator:wikidata": "Q499104", "wheelchair": "yes"}}, {"type": "node", "id": 2246184901, "lat": 51.4872396, "lon": -0.1167543, "tags": {"amenity": "bicycle_rental", "bicycle_rental": "docking_station", "brand": "Santander Cycles", "brand:wikidata": "Q807961", "capacity": "18", "check_date": "2024-04-03", "historic:ref": "CH18019", "local": "Vauxhall", "name": "Vauxhall Street", "network": "tfl_cycle_hire", "official_name": "Vauxhall Street, Vauxhall", "official_ref": "352", "operator": "Serco", "operator:type": "private", "operator:wikidata": "Q499104", "wheelchair": "yes"}}, {"type": "node", "id": 2250598240, "lat": 51.486285, "lon": -0.1205499, "tags": {"amenity": "bicycle_parking", "bicycle_parking": "stands", "capacity": "2", "check_date:capacity": "2021-04-19", "covered": "no", "source": "survey ch"}}, {"type": "node", "id": 2250601138, "lat": 51.4864921, "lon": -0.1191176, "tags": {"amenity": "bicycle_parking", "bicycle_parking": "stands", "capacity": "2", "check_date:capacity": "2021-10-06", "covered": "no", "source": "survey ch"}}, {"type": "node", "id": 2250617717, "lat": 51.4865088, "lon": -0.1178623, "tags": {"amenity": "bicycle_parking", "bicycle_parking": "stands", "capacity": "10", "covered": "no", "source": "survey ch"}}, {"type": "node", "id": 2250621740, "lat": 51.4867393, "lon": -0.116843, "tags": {"amenity": "bicycle_parking", "bicycle_parking": "stands", "capacity": "4", "check_date:capacity": "2021-04-19", "covered": "no", "source": "survey ch"}}, {"type": "node", "id": 2664099949, "lat": 51.4863639, "lon": -0.1203331, "tags": {"addr:housenumber": "346", "addr:street": "Kennington Lane", "name": "Cutting Crew", "name:fa": "\u06a9\u0627\u062a\u06cc\u0646\u06af \u06a9\u0631\u0648", "opening_hours": "Mo-Fr 09:00-20:00; Sa 09:00-19:00; Su 10:00-18:00", "phone": "+44 20 7793 9777", "shop": "hairdresser", "wheelchair": "yes"}}, {"type": "node", "id": 2664104120, "lat": 51.4863856, "lon": -0.1201892, "tags": {"addr:housenumber": "342", "addr:street": "Kennington Lane", "name": "Masculine Grooming", "opening_hours": "Mo-Fr 09:00-20:00; Sa 09:00-19:00; Su 10:00-18:00", "phone": "+44 20 7207 7043", "shop": "hairdresser"}}, {"type": "node", "id": 2664104694, "lat": 51.4863915, "lon": -0.1200761, "tags": {"addr:housenumber": "340", "addr:street": "Kennington Lane", "name": "Vauxhall Dry Cleaners", "name:fa": "\u062e\u0634\u06a9 \u06a9\u0646 \u0647\u0627\u06cc \u0648\u0627\u06a9\u0633\u0647\u0627\u0644", "phone": "+44 20 7582 3940", "shop": "dry_cleaning"}}, {"type": "node", "id": 2664108831, "lat": 51.4862934, "lon": -0.1192937, "tags": {"addr:city": "London", "addr:housenumber": "349", "addr:postcode": "SE11 5QY", "addr:street": "Kennington Lane", "amenity": "bar", "check_date": "2024-06-22", "fhrs:authority": "Lambeth", "fhrs:id": "483429", "fhrs:inspectiondate": "2011-02-18", "fhrs:rating": "5", "lgbtq": "primary", "name": "Eagle London", "name:fa": "\u0639\u0642\u0627\u0628 \u0644\u0646\u062f\u0646", "outdoor_seating": "no", "website": "https://www.eaglelondon.com/", "wikimedia_commons": "File:Eagle, Vauxhall, SE11 (2920142292).jpg"}}, {"type": "node", "id": 2664116983, "lat": 51.4865024, "lon": -0.1192955, "tags": {"addr:city": "London", "addr:housenumber": "322", "addr:postcode": "SE11 5HY", "addr:street": "Kennington Lane", "check_date": "2024-06-22", "fhrs:authority": "Lambeth", "fhrs:id": "483387", "fhrs:inspectiondate": "2012-02-20", "fhrs:rating": "2", "name": "Payless Food & Wine", "name:fa": "\u063a\u0630\u0627 \u0648 \u0634\u0631\u0627\u0628 \u0628\u062f\u0648\u0646 \u067e\u0631\u062f\u0627\u062e\u062a", "opening_hours": "24/7", "shop": "convenience", "wheelchair": "yes"}}, {"type": "node", "id": 3455504293, "lat": 51.4891963, "lon": -0.1173635, "tags": {"addr:city": "London", "addr:housenumber": "36-38", "addr:postcode": "SE11 5LG", "addr:street": "Vauxhall Street", "addr:suburb": "Lambeth", "amenity": "post_office", "name": "Vauxhall Street Post Office", "opening_hours": "Mo-Sa 08:00-20:00; Su 09:00-14:00", "ref:pol_id": "128468"}}, {"type": "node", "id": 3455504294, "lat": 51.4892311, "lon": -0.1173442, "tags": {"addr:street": "Vauxhall Street", "amenity": "post_box", "brand": "Royal Mail", "brand:wikidata": "Q638098", "brand:wikipedia": "en:Royal Mail", "collection_times": "Mo-Fr 17:30; Sa 12:00", "drive_through": "no", "operator": "Royal Mail", "operator:wikidata": "Q638098", "post_box:design": "type_a", "post_box:type": "pillar", "ref": "SE11 25", "royal_cypher": "GVIR", "royal_cypher:wikidata": "Q33102169", "source": "survey"}}, {"type": "node", "id": 4174264289, "lat": 51.4862942, "lon": -0.1194806, "tags": {"addr:city": "London", "addr:housenumber": "353", "addr:postcode": "SE11 5QY", "addr:street": "Kennington Lane", "amenity": "restaurant", "check_date": "2024-06-22", "cuisine": "korean", "diet:vegan": "no", "diet:vegetarian": "yes", "fhrs:id": "981375", "indoor_seating": "yes", "name": "Jihwaja", "outdoor_seating": "no"}}, {"type": "node", "id": 4209266371, "lat": 51.4864644, "lon": -0.1195637, "tags": {"addr:city": "London", "addr:housenumber": "328", "addr:postcode": "SE11 5HY", "addr:street": "Kennington Lane", "brand": "William Hill", "brand:wikidata": "Q4053147", "brand:wikipedia": "en:William Hill (bookmaker)", "name": "William Hill", "name:fa": "\u0648\u06cc\u0644\u06cc\u0627\u0645 \u0647\u06cc\u0644", "opening_hours": "Mo-Fr 09:00-22:00; Sa 09:00-21:30; Su 10:00-21:30", "phone": "+44 870 518 1715", "shop": "bookmaker", "website": "https://shoplocator.williamhill/london/kennington-lane/se11-5hy"}}, {"type": "node", "id": 4209266372, "lat": 51.4864758, "lon": -0.1195033, "tags": {"addr:housenumber": "326", "addr:street": "Kennington Lane", "name": "Tanning & Beauty Clinic", "name:fa": "\u0641\u0631\u0648\u0634\u06af\u0627\u0647 \u062a\u0627\u0646\u06cc\u0646\u06af", "opening_hours": "Tu-Fr 11:30-18:45; Sa 11:30-15:45", "phone": "+44 20 7820 8080", "shop": "beauty", "website": "https://www.pep-tanning-beauty-clinic.com"}}, {"type": "node", "id": 4214691751, "lat": 51.4864015, "lon": -0.1200069, "tags": {"addr:city": "London", "addr:housenumber": "338", "addr:postcode": "SE11 5HY", "addr:street": "Kennington Lane", "amenity": "fast_food", "cuisine": "chinese", "fhrs:id": "483123", "name": "Lucky Fish Bar", "name:fa": "\u0644\u0648\u06a9\u06cc \u0641\u06cc\u0634 \u0628\u0627\u0631", "phone": "+44 20 7735 0498", "source:addr": "FHRS Open Data", "takeaway": "only"}}, {"type": "node", "id": 4214691752, "lat": 51.4864297, "lon": -0.1198538, "tags": {"amenity": "post_office", "brand": "Mail Boxes Etc.", "brand:wikidata": "Q92922921", "brand:wikipedia": "en:Mail Boxes Etc.", "name": "Mail Boxes Etc.", "name:fa": "\u0645\u06cc\u0644 \u0628\u0627\u06a9\u0633\u0632 \u0627\u06cc \u062a\u06cc \u0633\u06cc", "opening_hours": "Mo-Fr 09:00-18:00", "operator": "roya", "shop": "copyshop", "website": "https://www.mbe.co.uk/londonvauxhall"}}, {"type": "node", "id": 4704552900, "lat": 51.4875014, "lon": -0.1189592, "tags": {"amenity": "cafe", "name": "The Old Dairy Cafe"}}, {"type": "node", "id": 6771411043, "lat": 51.4881927, "lon": -0.1209178, "tags": {"amenity": "bicycle_parking", "bicycle_parking": "stands", "capacity": "6", "covered": "no"}}, {"type": "node", "id": 9127200342, "lat": 51.4880479, "lon": -0.1209625, "tags": {"amenity": "waste_basket"}}, {"type": "node", "id": 9217364590, "lat": 51.4877821, "lon": -0.1210927, "tags": {"amenity": "waste_basket"}}, {"type": "node", "id": 9217364605, "lat": 51.4877721, "lon": -0.1213196, "tags": {"amenity": "bench", "backrest": "yes"}}, {"type": "node", "id": 9217364612, "lat": 51.4877939, "lon": -0.1209766, "tags": {"access": "yes", "amenity": "drinking_water", "bottle": "yes", "covered": "no", "fee": "no", "fountain": "bottle_refill", "indoor": "no", "lit": "yes"}}, {"type": "node", "id": 10073549620, "lat": 51.4881169, "lon": -0.1210514, "tags": {"amenity": "bench", "backrest": "yes", "lit": "no"}}, {"type": "node", "id": 10073549621, "lat": 51.4883086, "lon": -0.1209919, "tags": {"amenity": "bench", "backrest": "yes", "lit": "no"}}, {"type": "node", "id": 10073549622, "lat": 51.4890518, "lon": -0.1206741, "tags": {"amenity": "bicycle_parking", "bicycle_parking": "stands", "capacity": "6", "covered": "no", "fee": "no"}}, {"type": "node", "id": 10073549623, "lat": 51.4881755, "lon": -0.1210793, "tags": {"amenity": "bench", "backrest": "yes", "lit": "no"}}, {"type": "node", "id": 10073549624, "lat": 51.4882505, "lon": -0.1210521, "tags": {"amenity": "bench", "backrest": "yes", "lit": "no"}}, {"type": "node", "id": 10172443399, "lat": 51.4865521, "lon": -0.1190103, "tags": {"addr:housenumber": "316-318", "addr:street": "Kennington Lane", "amenity": "restaurant", "cuisine": "korean", "delivery": "yes", "diet:vegan": "yes", "diet:vegetarian": "yes", "name": "Daebak", "opening_hours": "Mo-Sa 12:00-22:30; Su 12:00-21:30", "outdoor_seating": "no", "toilets": "yes"}}, {"type": "node", "id": 10275588882, "lat": 51.487906, "lon": -0.1168968, "tags": {"amenity": "bicycle_parking", "bicycle_parking": "stands", "capacity": "2", "ref:GB:tflcid": "RWG050070"}}, {"type": "node", "id": 10275615876, "lat": 51.4884847, "lon": -0.1208016, "tags": {"amenity": "bicycle_parking", "bicycle_parking": "stands", "capacity": "4", "covered": "no", "ref:GB:tflcid": "RWG050139"}}, {"type": "node", "id": 10277991883, "lat": 51.4874665, "lon": -0.1195062, "tags": {"amenity": "bicycle_parking", "bicycle_parking": "bollard", "capacity": "8", "covered": "no", "ref:GB:tflcid": "RWG050541"}}, {"type": "node", "id": 10277995484, "lat": 51.4877183, "lon": -0.118756, "tags": {"amenity": "bicycle_parking", "bicycle_parking": "stands", "capacity": "4", "covered": "no", "ref:GB:tflcid": "RWG050530"}}, {"type": "node", "id": 10277995486, "lat": 51.4873532, "lon": -0.1163794, "tags": {"amenity": "bicycle_parking", "bicycle_parking": "stands", "capacity": "2", "ref:GB:tflcid": "RWG050045"}}, {"type": "node", "id": 10277995487, "lat": 51.4873513, "lon": -0.1164076, "tags": {"amenity": "bicycle_parking", "bicycle_lock": "provided", "bicycle_parking": "stands", "capacity": "12", "covered": "yes", "ref:GB:tflcid": "RWG050046"}}, {"type": "node", "id": 10788813799, "lat": 51.4859894, "lon": -0.1191558, "tags": {"amenity": "bar", "check_date": "2024-06-22", "name": "Yard Anchor House"}}, {"type": "node", "id": 10788813802, "lat": 51.485994, "lon": -0.1190447, "tags": {"amenity": "charging_station"}}, {"type": "node", "id": 10798292860, "lat": 51.4861989, "lon": -0.118702, "tags": {"amenity": "bicycle_parking"}}, {"type": "node", "id": 10798292861, "lat": 51.4861865, "lon": -0.1186164, "tags": {"amenity": "bicycle_parking"}}, {"type": "node", "id": 10809080203, "lat": 51.4864127, "lon": -0.1199204, "tags": {"addr:housenumber": "336", "addr:street": "Kennington Lane", "beauty": "nails", "name": "Nails & Beauty", "opening_hours": "Mo-Sa 10:00-20:00; Su 10:00-18:00", "payment:cash": "yes", "payment:credit_cards": "no", "payment:debit_cards": "no", "payment:mastercard": "no", "payment:visa": "no", "phone": "+44 20 7018 4970", "shop": "beauty"}}, {"type": "node", "id": 10809108714, "lat": 51.486373, "lon": -0.1201408, "tags": {"amenity": "atm", "brand": "NoteMachine", "brand:wikidata": "Q104368525", "name": "NoteMachine", "operator": "NoteMachine", "operator:short": "NMATM", "operator:wikidata": "Q104368525"}}, {"type": "node", "id": 10809108729, "lat": 51.4864341, "lon": -0.1198423, "tags": {"amenity": "post_box", "brand": "Royal Mail", "brand:wikidata": "Q638098", "mapillary": "3910313762556073", "operator": "Royal Mail", "operator:wikidata": "Q638098", "post_box:mounting": "brick_pillar", "post_box:type": "wall", "survey:date": "2025-03-25"}}, {"type": "node", "id": 10809108730, "lat": 51.4863582, "lon": -0.1202661, "tags": {"amenity": "atm", "operator": "cashZzone"}}, {"type": "node", "id": 10809108737, "lat": 51.4864267, "lon": -0.1198337, "tags": {"amenity": "post_box", "brand": "Royal Mail", "brand:wikidata": "Q638098", "mapillary": "1015440807213710", "operator": "Royal Mail", "operator:wikidata": "Q638098", "post_box:type": "pillar", "survey:date": "2025-03-25"}}, {"type": "node", "id": 10809108742, "lat": 51.4865457, "lon": -0.1190785, "tags": {"addr:housenumber": "320", "addr:street": "Kennington Lane", "amenity": "fast_food", "check_date": "2024-06-22", "cuisine": "chicken", "name": "Rooster's Spot"}}, {"type": "node", "id": 10809108743, "lat": 51.4864351, "lon": -0.1197486, "tags": {"addr:housenumber": "332", "addr:street": "Kennington Lane", "amenity": "restaurant", "cuisine": "indian", "name": "The Coriander", "phone": "+44 20 7820 1231", "website": "https://www.thecoriander.com"}}, {"type": "node", "id": 10809108746, "lat": 51.4863712, "lon": -0.1202684, "tags": {"addr:housenumber": "344", "addr:street": "Kennington Lane", "name": "Super Way Express", "shop": "convenience"}}, {"type": "node", "id": 10809108756, "lat": 51.4863538, "lon": -0.1204708, "tags": {"addr:city": "London", "addr:housenumber": "348", "addr:postcode": "SE11 5HY", "addr:street": "Kennington Lane", "alt_name": "Kentucky Fried Chicken", "amenity": "fast_food", "brand": "KFC", "brand:wikidata": "Q524757", "check_date": "2024-06-22", "cuisine": "chicken", "drive_through": "no", "fhrs:id": "1563672", "name": "KFC", "takeaway": "yes", "website": "https://www.kfc.co.uk/kfc-near-me/vauxhall-kennington-lane"}}, {"type": "node", "id": 10809292644, "lat": 51.4869418, "lon": -0.1206954, "tags": {"amenity": "parking_space", "description": "Scooter rental", "name": "Scooters rental", "parking_space": "normal"}}, {"type": "node", "id": 10832550381, "lat": 51.4873676, "lon": -0.1191154, "tags": {"access": "private", "amenity": "waste_disposal", "waste": "mixed"}}, {"type": "node", "id": 10863814438, "lat": 51.4872421, "lon": -0.1161916, "tags": {"addr:city": "London", "addr:housename": "Unit C", "addr:housenumber": "250", "addr:postcode": "SE11 5RD", "addr:street": "Kennington Lane", "check_date": "2024-04-03", "name": "Wex Rental London", "opening_hours": "Mo-Fr 09:00-17:00; Sa-Su off", "phone": "+44 20 7383 5127", "shop": "camera", "website": "https://rental.wexphotovideo.com/store-wex-rental-london-vauxhall"}}, {"type": "node", "id": 10866440052, "lat": 51.4871285, "lon": -0.1163992, "tags": {"access": "private", "amenity": "parking"}}, {"type": "node", "id": 10998020541, "lat": 51.4875428, "lon": -0.1207444, "tags": {"amenity": "bench", "backrest": "no"}}, {"type": "node", "id": 10998020542, "lat": 51.487205, "lon": -0.1207183, "tags": {"amenity": "bench", "backrest": "yes"}}, {"type": "way", "id": 136012127, "center": {"lat": 51.4867789, "lon": -0.118665}, "nodes": [1492629751, 1492629753, 1492629755, 1492629757, 1492629768, 1492629769, 1492629770, 1492629771, 1492629772, 1492629774, 10832929334, 10832929333, 1492629778, 1492629783, 1492629785, 1492629787, 1492629790, 1492629793, 1492629795, 1492629796, 1492629797, 10809108722, 1492629799, 1492629800, 1492629801, 1492629839, 1492629803, 1492629827, 10809108708, 10809108724, 10809108753, 10809080199, 1492629830, 1492629831, 1492629751], "tags": {"addr:city": "London", "addr:housenumber": "310", "addr:postcode": "SE11 5HY", "addr:street": "Kennington Lane", "amenity": "place_of_worship", "building": "yes", "denomination": "anglican", "listed_status": "Grade II*", "name": "St Peter Vauxhall", "operator": "North Lambeth Parish & Circuit", "phone": "+44 20 7735 3403", "ref:GB:nhle": "1358276", "ref:GB:uprn": "100023230399", "religion": "christian", "source": "Bing", "website": "https://www.northlambethparishandcircuit.co.uk/churches/st-peters-church", "wheelchair": "yes", "wikidata": "Q17553042", "wikipedia": "en:St Peter's Church, Vauxhall"}}, {"type": "way", "id": 220541936, "center": {"lat": 51.4860565, "lon": -0.1198369}, "nodes": [2296534119, 2296534110, 2296534100, 4255430684, 4255430686, 10790552658, 4255430820, 2296534103, 10790552663, 4255430821, 2296534104, 10788839809, 10788839808, 4255430816, 10788845871, 4255430681, 10788839896, 4255430674, 4255430672, 2296534125, 2296534119], "tags": {"addr:city": "London", "addr:housenumber": "363", "addr:postcode": "SE11 5QY", "addr:street": "Kennington Lane", "amenity": "place_of_worship", "building": "yes", "check_date": "2024-06-22", "denomination": "catholic", "listed_status": "Grade II", "name": "St Anne's Catholic Church", "phone": "+44 20 7735 1862", "ref:GB:nhle": "1080423", "religion": "christian", "website": "https://www.stannescatholicchurchvauxhall.co.uk/", "wheelchair": "no", "wikidata": "Q26355167"}}, {"type": "way", "id": 261716994, "center": {"lat": 51.4883263, "lon": -0.1189375}, "nodes": [2673148388, 2673148380, 10832878399, 10832878400, 2673148349, 10832878397, 10186782184, 9762875171, 10186782179, 10832917205, 10832807276, 10832550386, 2673148367, 2673148388], "tags": {"addr:city": "London", "addr:housenumber": "105", "addr:postcode": "SE11 5HS", "addr:street": "Tyers Street", "amenity": "place_of_worship", "building": "church", "denomination": "protestant", "email": "sam@hopevauxhall.co.uk", "fixme": "Don't know how to define denomination, pls fix if needed.", "name": "Hope Church", "phone": "+44 20 7582 2618", "religion": "christian", "website": "https://hopevauxhall.co.uk/"}}, {"type": "way", "id": 276191140, "center": {"lat": 51.488148, "lon": -0.1205412}, "nodes": [2808119880, 9217364591, 10790548420, 2808119881, 9217364592, 10880933260, 9217364593, 9217364594, 2808119882, 2808119883, 2808119880], "tags": {"addr:city": "London", "addr:housenumber": "139", "addr:postcode": "SE11 5HL", "addr:street": "Vauxhall Walk", "amenity": "cafe", "building": "yes", "changing_table": "yes", "check_date": "2025-03-29", "contact:email": "info@teahousetheatre.co.uk", "cuisine": "british;tea", "diet:vegetarian": "yes", "fhrs:authority": "Lambeth", "fhrs:id": "483692", "fhrs:inspectiondate": "2013-07-31", "fhrs:rating": "4", "highchair": "yes", "internet_access": "no", "name": "The Tea House Theatre", "name:fa": "\u062a\u0626\u0627\u062a\u0631 \u062e\u0627\u0646\u0647 \u0686\u0627\u06cc", "opening_hours": "Mo-Fr 09:30-22:00; Sa 09:00-22:00; Su 09:30-20:00", "outdoor_seating": "yes", "payment:american_express": "yes", "payment:maestro": "yes", "payment:mastercard": "yes", "payment:visa": "yes", "payment:visa_debit": "yes", "payment:visa_electron": "yes", "phone": "+44 20 7207 4585", "reservation": "yes", "toilets": "yes", "toilets:access": "customers", "toilets:handwashing": "yes", "toilets:num_chambers": "2", "toilets:wheelchair": "designated", "website": "https://www.teahousetheatre.co.uk/", "wheelchair": "yes"}}, {"type": "way", "id": 300860274, "center": {"lat": 51.4857629, "lon": -0.1175374}, "nodes": [672965108, 1815318316, 1815318275, 12343905401, 10790273701, 12343880200, 10790273698, 12343880199, 10790273699, 1815318401, 1815318397, 1815318398, 1815318402, 12343905403, 12343905402, 10790417647, 6848973195, 10790417648, 12343905404, 3049537246, 12343905408, 10790417650, 12343905405, 12343905407, 3049537245, 10790417652, 12343905409, 3049537244, 10790417654, 10790417656, 10790417665, 3049537243, 10790417667, 3049537240, 10790417670, 10790417671, 10790417672, 10790417673, 10790417674, 12343905506, 12343905507, 3049537241, 3049537242, 10780666928, 10780666929, 10780666927, 10780666926, 10798292856, 672965108], "tags": {"addr:city": "London", "addr:housenumber": "323", "addr:postcode": "SE11 5QY", "addr:street": "Kennington Lane", "amenity": "school", "capacity": "900", "check_date": "2025-07-07", "fhrs:authority": "Lambeth", "fhrs:id": "483715", "fhrs:inspectiondate": "2011-06-28", "fhrs:rating": "5", "isced:level": "2;3", "max_age": "18", "min_age": "11", "name": "Lilian Baylis Technology School", "operator": "London Borough of Lambeth", "operator:type": "government", "operator:wikidata": "Q202059", "phone": "+44 20 70919500", "ref:GB:uprn": "10008785986", "ref:edubase": "100625", "ref:edubase:group": "1951", "religion": "none", "school": "secondary", "school:gender": "mixed", "school:group:type": "federation", "school:selective": "no", "school:type": "community", "website": "https://www.lilianbaylis.com/", "wikidata": "Q6547668"}}, {"type": "way", "id": 301957704, "center": {"lat": 51.488711, "lon": -0.1180409}, "nodes": [3061357017, 3061357016, 10832878401, 3061357018, 3061357022, 10806194459, 10806194460, 2860323880, 3061357020, 4967082886, 2673148423, 3061357019, 3061357017], "tags": {"addr:city": "London", "addr:postcode": "SE11 5LG", "addr:street": "Vauxhall Street", "amenity": "school", "capacity": "236", "check_date": "2025-07-07", "education": "school", "fhrs:authority": "Lambeth", "fhrs:id": "484635", "fhrs:inspectiondate": "2014-03-25", "fhrs:rating": "5", "isced:level": "0;1", "max_age": "11", "min_age": "3", "name": "Vauxhall Primary School", "operator": "Wyvern Federation", "operator:type": "private", "operator:wikidata": "Q122640947", "phone": "+44 20 77354535", "ref:GB:uprn": "100023230109", "ref:edubase": "100588", "ref:edubase:group": "1951", "religion": "none", "school": "primary", "school:boarding": "no", "school:gender": "mixed", "school:group:type": "federation", "school:selective": "no", "school:type": "foundation", "website": "https://www.vauxhallprimary.org.uk/", "wikidata": "Q7917464"}}, {"type": "way", "id": 426236891, "center": {"lat": 51.4862457, "lon": -0.1194096}, "nodes": [4255430825, 10813005060, 4255430827, 10788839806, 10813005059, 10813005055, 10813005064, 4255430825], "tags": {"addr:city": "London", "addr:housenumber": "351", "addr:postcode": "SE11 5QY", "addr:street": "Kennington Lane", "amenity": "restaurant", "building": "yes", "check_date": "2024-06-22", "cuisine": "lebanese", "fhrs:id": "1659839", "name": "Ilili", "opening_hours": "Mo-Su 11:00-11:00", "phone": "+44 20 7998 4742"}}, {"type": "way", "id": 426236899, "center": {"lat": 51.4862228, "lon": -0.1195375}, "nodes": [4255430834, 4255430833, 4255430829, 4255430811, 4255430813, 4255430817, 10790314245, 4255430823, 4255430822, 4255430834], "tags": {"addr:city": "London", "addr:housename": "Mc & Sons Vauxhall", "addr:housenumber": "355", "addr:postcode": "SE11 5QY", "addr:street": "Kennington Lane", "amenity": "pub", "building": "yes", "check_date": "2024-06-22", "name": "MC & Sons", "website": "https://www.mcandsonsvauxhall.com"}}, {"type": "way", "id": 842022963, "center": {"lat": 51.4864716, "lon": -0.1166744}, "nodes": [672965142, 7855537360, 7855537363, 7855537364, 7855537365, 7855537366, 9150269565, 7855537356, 7855537369, 672965142], "tags": {"addr:city": "London", "addr:housenumber": "289", "addr:postcode": "SE11 5QY", "addr:street": "Kennington Lane", "brand": "Big Yellow Self Storage", "brand:wikidata": "Q4906703", "building": "yes", "check_date": "2024-10-02", "name": "Big Yellow Self Storage", "phone": "+44 20 7587 1453", "shop": "storage_rental", "website": "https://www.bigyellow.co.uk/kennington-self-storage-units/"}}, {"type": "way", "id": 990187799, "center": {"lat": 51.4875966, "lon": -0.115976}, "nodes": [12344901397, 12344901398, 12344901399, 9150276598, 9150276599, 12344901397], "tags": {"amenity": "parking"}}, {"type": "way", "id": 990187800, "center": {"lat": 51.4875514, "lon": -0.1162277}, "nodes": [12344901395, 9150276601, 9150276602, 12344901396, 12344901395], "tags": {"amenity": "parking"}}, {"type": "way", "id": 990187812, "center": {"lat": 51.4876465, "lon": -0.1177914}, "nodes": [9150283051, 9150283052, 9150283053, 9150283054, 9150283051], "tags": {"amenity": "parking"}}, {"type": "way", "id": 1062732274, "center": {"lat": 51.4880572, "lon": -0.1187237}, "nodes": [9762875171, 9762875172, 9762875173, 9762875174, 10832929368, 10832929369, 10863830593, 9762875175, 9762875176, 9762875177, 9762875178, 10186782184, 9762875171], "tags": {"addr:city": "London", "addr:housenumber": "13", "addr:postcode": "SE11 5LZ", "addr:street": "Tyers Terrace", "amenity": "place_of_worship", "building": "church", "denomination": "apostolic", "name": "All Nations' Centre", "phone": "+44 20 7820 9917", "religion": "christian", "service_times": "Su 10:00-11:15", "website": "https://www.apostolic-anc.org"}}, {"type": "way", "id": 1160235113, "center": {"lat": 51.4881498, "lon": -0.1201192}, "nodes": [10790547676, 10790548406, 10790547677, 10790547678, 10790547679, 10790547676], "tags": {"amenity": "parking", "parking": "surface"}}, {"type": "way", "id": 1160235114, "center": {"lat": 51.4881285, "lon": -0.1198936}, "nodes": [10790547680, 10790547681, 10790547682, 10790547683, 10790547680], "tags": {"access": "private", "amenity": "parking", "parking": "surface"}}, {"type": "way", "id": 1160235118, "center": {"lat": 51.4881022, "lon": -0.1203082}, "nodes": [10790548407, 10790548408, 10790548409, 10790548410, 10790548411, 10790548407], "tags": {"amenity": "parking", "parking": "surface"}}, {"type": "way", "id": 1162280092, "center": {"lat": 51.4870753, "lon": -0.1161522}, "nodes": [10809286599, 10809286600, 10809286601, 10809286602, 10809286599], "tags": {"amenity": "parking", "capacity": "8"}}, {"type": "way", "id": 1162280093, "center": {"lat": 51.4870739, "lon": -0.1160034}, "nodes": [10809286603, 10809286604, 10809311907, 10809311905, 10809311906, 10809286603], "tags": {"amenity": "parking", "capacity": "6"}}, {"type": "way", "id": 1164750947, "center": {"lat": 51.487032, "lon": -0.1186825}, "nodes": [10832837029, 10832837031, 10832837030, 10832837035, 10832837033, 10832837034, 10832837029], "tags": {"access": "private", "amenity": "parking", "capacity": "5", "parking": "surface"}}, {"type": "way", "id": 1181776343, "center": {"lat": 51.4889249, "lon": -0.1200891}, "nodes": [10973931218, 10973931219, 10973931220, 10973931221, 10973931222, 10973931223, 10973931224, 10973931225, 10973931218], "tags": {"access": "private", "amenity": "parking", "parking": "surface"}}]}