{"version": 0.6, "generator": "Overpass API 0.7.62.11 87bfad18", "osm3s": {"timestamp_osm_base": "2026-06-10T16:30:30Z", "copyright": "The data included in this document is from www.openstreetmap.org. The data is made available under ODbL."}, "elements": [{"type": "node", "id": 3774627180, "lat": 51.4824122, "lon": -0.1351202, "tags": {"addr:city": "London", "addr:district": "Battersea", "addr:housenumber": "1", "addr:postcode": "SW11 7DN", "addr:street": "New Union Square", "alt_name": "Waitrose Battersea - Nine Elms", "brand": "Waitrose", "brand:wikidata": "Q771734", "brand:wikipedia": "en:Waitrose & Partners", "check_date": "2024-08-18", "name": "Waitrose", "official_name": "Waitrose & Partners", "opening_hours": "Mo-Sa 07:30-22:00; Su 12:00-18:00", "operator": "Waitrose & Partners", "organic": "yes", "payment:cards": "yes", "payment:cash": "yes", "payment:contactless": "yes", "payment:credit_cards": "yes", "payment:debit_cards": "yes", "phone": "+44 20 7622 2459", "shop": "supermarket", "website": "https://www.waitrose.com/find-a-store/battersea-nine-elms", "wheelchair": "yes"}}, {"type": "node", "id": 4715048896, "lat": 51.4823352, "lon": -0.1362718, "tags": {"amenity": "bicycle_rental", "bicycle_rental": "docking_station", "brand": "Santander Cycles", "brand:wikidata": "Q807961", "check_date": "2024-08-18", "local": "Nine Elms", "name": "Riverlight North", "network": "tfl_cycle_hire", "official_name": "Riverlight North, Nine Elms", "official_ref": "183", "operator": "Serco", "operator:type": "private", "operator:wikidata": "Q499104"}}, {"type": "node", "id": 4975270294, "lat": 51.4826242, "lon": -0.1363637, "tags": {"addr:city": "London", "addr:housenumber": "1", "addr:postcode": "SW11 8AU", "addr:street": "Riverlight Quay", "addr:unit": "Unit F", "amenity": "cafe", "contact:email": "info@theblackcabcoffeeco.com", "contact:facebook": "https://www.facebook.com/BlackCabCoffee/", "contact:instagram": "blackcabcoffee", "contact:phone": "+44 20 7498 8760", "contact:twitter": "@BlackCabCoffee", "contact:website": "https://www.theblackcabcoffeeco.com/", "cuisine": "coffee_shop", "fhrs:id": "1625101", "fhrs:local_authority_id": "PI/000470893", "name": "Black Cab Coffee Co", "opening_hours": "Mo-Fr 07:00-22:00; Sa-Su 09:00-23:00", "outdoor_seating": "yes", "source:addr": "FHRS Open Data"}}, {"type": "node", "id": 6019793397, "lat": 51.4825039, "lon": -0.1350112, "tags": {"amenity": "bicycle_parking", "capacity": "6"}}, {"type": "node", "id": 6935058506, "lat": 51.4830171, "lon": -0.1348625, "tags": {"amenity": "bench", "backrest": "yes", "material": "wood"}}, {"type": "node", "id": 7008645542, "lat": 51.4823574, "lon": -0.1354295, "tags": {"addr:city": "London", "addr:housenumber": "2", "addr:postcode": "SW11 7AX", "addr:street": "New Union Square", "amenity": "restaurant", "check_date": "2024-08-18", "fhrs:id": "1572267", "name": "LINNAEAN", "opening_hours": "Su-We 09:00-16:00; Th-Sa 09:00-22:00", "phone": "+44 20 3993 6089"}}, {"type": "node", "id": 7008791590, "lat": 51.48186, "lon": -0.1337767, "tags": {"addr:city": "London", "addr:housenumber": "7", "addr:postcode": "SW11 7DN", "addr:street": "New Union Square", "amenity": "cafe", "bar": "yes", "cuisine": "coffee_shop", "email": "managereg@districtlondon.co.uk", "internet_access": "wlan", "internet_access:fee": "no", "name": "District", "opening_hours": "Mo-We 07:00-17:00; Th 07:00-21:30; Fr 06:30-21:30; Sa 08:00-21:30; Su 08:00-16:00", "outdoor_seating": "yes", "website": "https://www.district.coffee"}}, {"type": "node", "id": 8592327516, "lat": 51.4827636, "lon": -0.1363693, "tags": {"amenity": "bicycle_parking", "bicycle_parking": "stands", "capacity": "12", "check_date": "2025-08-24", "check_date:capacity": "2025-08-24", "covered": "no", "mapillary": "328177502307616"}}, {"type": "node", "id": 8592327926, "lat": 51.4819097, "lon": -0.1361509, "tags": {"amenity": "bicycle_parking", "capacity": "8", "covered": "no"}}, {"type": "node", "id": 10002424273, "lat": 51.4812372, "lon": -0.1318822, "tags": {"addr:city": "London", "addr:housenumber": "28", "addr:postcode": "SW11 7BA", "addr:street": "Ponton Road", "name": "Battersea & Nine Elms Estates", "operator": "Battersea & Nine Elms Estates", "phone": "+44 20 7720 6089", "shop": "estate_agent", "website": "https://www.battersea9elms.co.uk/about/about-us"}}, {"type": "node", "id": 10282007538, "lat": 51.4815108, "lon": -0.1346711, "tags": {"amenity": "bicycle_parking", "bicycle_parking": "stands", "capacity": "10", "ref:GB:tflcid": "RWG050542"}}, {"type": "node", "id": 10282007539, "lat": 51.481315, "lon": -0.1349731, "tags": {"amenity": "bicycle_parking", "bicycle_parking": "stands", "capacity": "10", "ref:GB:tflcid": "RWG050543"}}, {"type": "node", "id": 10282007540, "lat": 51.4823994, "lon": -0.1342372, "tags": {"amenity": "bicycle_parking", "bicycle_parking": "stands", "capacity": "8", "ref:GB:tflcid": "RWG049880"}}, {"type": "node", "id": 10282007541, "lat": 51.4823861, "lon": -0.1342242, "tags": {"amenity": "bicycle_parking", "bicycle_parking": "stands", "capacity": "8", "ref:GB:tflcid": "RWG049881"}}, {"type": "node", "id": 10806653181, "lat": 51.482066, "lon": -0.1330217, "tags": {"amenity": "bicycle_parking"}}, {"type": "node", "id": 10809750444, "lat": 51.4820761, "lon": -0.1330993, "tags": {"amenity": "waste_disposal"}}, {"type": "node", "id": 12118660024, "lat": 51.4811041, "lon": -0.1318461, "tags": {"amenity": "cafe", "check_date": "2024-08-18", "name": "Sendero", "opening_hours": "Mo-Fr 08:00-15:30; Sa 08:00-15:00; Su 09:00-14:00"}}, {"type": "node", "id": 12118660025, "lat": 51.4813998, "lon": -0.1316, "tags": {"amenity": "music_school", "check_date": "2024-08-18", "education": "music_school", "name": "World Heart Beat"}}, {"type": "node", "id": 12772672651, "lat": 51.4817323, "lon": -0.1342478, "tags": {"addr:city": "London", "addr:housenumber": "7", "addr:postcode": "SW11 7DN", "addr:street": "New Union Square, Embassy Gardens,", "amenity": "restaurant", "cuisine": "american;burger;steak;sandwich;salad;dessert", "diet:kosher": "yes", "diet:vegan": "yes", "name": "Passyunk Avenue", "phone": "+44 20 8194 8686", "website": "https://passyunkavenue.com"}}, {"type": "node", "id": 13094934420, "lat": 51.4830619, "lon": -0.1357976, "tags": {"amenity": "bench", "backrest": "no", "check_date": "2025-08-24", "material": "wood"}}, {"type": "node", "id": 13094934421, "lat": 51.4830902, "lon": -0.1358095, "tags": {"amenity": "bench", "backrest": "no", "check_date": "2025-08-24", "material": "wood"}}, {"type": "node", "id": 13378985028, "lat": 51.4833816, "lon": -0.1339895, "tags": {"amenity": "waste_basket", "material": "plastic", "waste": "trash"}}, {"type": "node", "id": 13378985029, "lat": 51.4833306, "lon": -0.134197, "tags": {"amenity": "waste_basket", "material": "plastic", "waste": "trash"}}, {"type": "node", "id": 13378985031, "lat": 51.4832832, "lon": -0.1342694, "tags": {"amenity": "bench", "armrest": "yes", "backrest": "yes", "material": "wood", "seats": "3"}}, {"type": "node", "id": 13378985033, "lat": 51.4831446, "lon": -0.1345588, "tags": {"amenity": "waste_basket", "material": "plastic", "waste": "trash"}}, {"type": "node", "id": 13378985034, "lat": 51.4830635, "lon": -0.1346585, "tags": {"amenity": "bench", "armrest": "yes", "backrest": "yes", "material": "wood", "seats": "3"}}, {"type": "node", "id": 13378985035, "lat": 51.4830857, "lon": -0.1348297, "tags": {"amenity": "waste_basket", "material": "plastic", "waste": "trash"}}, {"type": "node", "id": 13378985036, "lat": 51.4830592, "lon": -0.1349557, "tags": {"amenity": "waste_basket", "material": "plastic", "waste": "trash"}}, {"type": "node", "id": 13378985038, "lat": 51.4830334, "lon": -0.1350455, "tags": {"amenity": "waste_basket", "material": "plastic", "waste": "trash"}}, {"type": "node", "id": 13379010009, "lat": 51.4836561, "lon": -0.1321074, "tags": {"amenity": "waste_basket", "material": "plastic", "waste": "trash"}}, {"type": "node", "id": 13379019391, "lat": 51.4835446, "lon": -0.1331683, "tags": {"amenity": "waste_basket", "material": "plastic", "waste": "trash"}}, {"type": "way", "id": 515519810, "center": {"lat": 51.4825857, "lon": -0.1336186}, "nodes": [3774627173, 10809750440, 5034348695, 6229307747, 6229307749, 6229307748, 6229307750, 5034348696, 6229307751, 3774627176, 10809750441, 10811650952, 6229307752, 3774627173], "tags": {"amenity": "parking", "capacity": "30"}}, {"type": "way", "id": 991872168, "center": {"lat": 51.4822248, "lon": -0.1343934}, "nodes": [9164229212, 9164229211, 9164229210, 9164229209, 9164229212], "tags": {"access": "customers", "addr:city": "London", "addr:housenumber": "5", "addr:street": "New Union Square", "amenity": "parking", "fixme": "position approximate", "layer": "-1", "maxstay": "120", "note": "for Waitrose customers only", "parking": "underground"}}, {"type": "way", "id": 1122285382, "center": {"lat": 51.4835396, "lon": -0.1323294}, "nodes": [6957378327, 10264861502, 10264850836, 10264861504, 10264850837, 10264850838, 6957378327], "tags": {"amenity": "shelter", "building": "roof", "layer": "1", "name": "Bourne Valley Wharf Pavilion", "roof:material": "plants", "shelter_type": "pavilion"}}, {"type": "way", "id": 1424762272, "center": {"lat": 51.4829055, "lon": -0.1364486}, "nodes": [4975270288, 13096066269, 13096066268, 13096066267, 4975270288], "tags": {"addr:city": "London", "addr:housename": "Tideway Dock", "addr:parentstreet": "Kirtling Street", "addr:postcode": "SW11 8PZ", "addr:street": "Tideway Walk", "addr:substreet": "Tideway Dock", "alt_name": "The Battersea Barge", "amenity": "pub", "building": "ship", "check_date": "2025-08-24", "fhrs:authority": "City of London Corporation", "fhrs:id": "926271", "fhrs:local_authority_id": "PI/000030228", "name": "Battersea BARge", "seamark:hulk:category": "floating_restaurant", "seamark:type": "hulk", "ship:type": "barge", "source:addr": "FHRS Open Data"}}]}