{"version": 0.6, "generator": "Overpass API 0.7.62.11 87bfad18", "osm3s": {"timestamp_osm_base": "2026-06-10T16:40:43Z", "copyright": "The data included in this document is from www.openstreetmap.org. The data is made available under ODbL."}, "elements": [{"type": "node", "id": 148782410, "lat": 51.4889866, "lon": -0.1467405, "tags": {"addr:city": "London", "addr:housenumber": "1a", "addr:postcode": "SW1V 4LD", "addr:street": "Sutherland Street", "air_conditioning": "no", "amenity": "pub", "fhrs:id": "1048553", "name": "The White Ferry", "opening_hours": "Mo-Su,PH 00:00-00:00", "wikidata": "Q27081607"}}, {"type": "node", "id": 264904715, "lat": 51.489854, "lon": -0.146213, "tags": {"amenity": "car_sharing", "capacity": "1", "operator": "Zipcar", "operator:type": "private", "operator:wikidata": "Q1069924", "source": "WebSite"}}, {"type": "node", "id": 428964047, "lat": 51.4906591, "lon": -0.1448259, "tags": {"amenity": "bicycle_parking", "bicycle_parking": "stands", "capacity": "12", "check_date": "2024-08-17", "covered": "no"}}, {"type": "node", "id": 428964048, "lat": 51.4906678, "lon": -0.1448525, "tags": {"amenity": "recycling", "location": "overground", "recycling:cans": "yes", "recycling:glass": "yes", "recycling:glass_bottles": "yes", "recycling:paper": "yes", "recycling_type": "container"}}, {"type": "node", "id": 428964050, "lat": 51.4905666, "lon": -0.1445302, "tags": {"amenity": "post_box", "collection_times": "Mo-Fr 18:30, Sa 11:30", "operator": "Royal Mail", "operator:wikidata": "Q638098", "post_box:apertures": "2", "post_box:type": "pillar", "ref": "SW1V 16;SW1V 116", "royal_cypher": "EIIR", "royal_cypher:wikidata": "Q33102113"}}, {"type": "node", "id": 430634390, "lat": 51.4905471, "lon": -0.1443641, "tags": {"addr:city": "London", "addr:housenumber": "59", "addr:street": "Cambridge Street", "name": "Bash", "shop": "convenience"}}, {"type": "node", "id": 430634393, "lat": 51.4905242, "lon": -0.1442843, "tags": {"name": "Classic Bindings", "shop": "books"}}, {"type": "node", "id": 568198494, "lat": 51.4900692, "lon": -0.1467042, "tags": {"access": "yes", "amenity": "parking", "brand": "Q-Park", "brand:wikidata": "Q1127798", "brand:wikipedia": "en:Q-Park", "fee": "yes", "layer": "-1", "name": "Q Park Pimlico", "opening_hours": "24/7", "operator": "Q-Park", "operator:type": "private", "operator:wikidata": "Q1127798", "parking": "underground"}}, {"type": "node", "id": 679215276, "lat": 51.4907106, "lon": -0.147559, "tags": {"amenity": "recycling"}}, {"type": "node", "id": 3063176037, "lat": 51.4904602, "lon": -0.1491697, "tags": {"amenity": "bicycle_rental", "bicycle_rental": "docking_station", "brand": "Santander Cycles", "brand:wikidata": "Q807961", "capacity": "25", "local": "Pimlico", "name": "Ebury Bridge", "network": "tfl_cycle_hire", "official_name": "Ebury Bridge, Pimlico", "official_ref": "424", "operator": "Serco", "operator:wikidata": "Q499104"}}, {"type": "node", "id": 3398042290, "lat": 51.4898229, "lon": -0.1457614, "tags": {"amenity": "recycling"}}, {"type": "node", "id": 3398046699, "lat": 51.4897568, "lon": -0.14603, "tags": {"amenity": "post_box", "collection_times": "Mo-Fr 18:30, Sa 11:30", "operator": "Royal Mail", "operator:wikidata": "Q638098", "post_box:apertures": "2", "post_box:type": "pillar", "ref": "SW1V 19;SW1V 119", "royal_cypher": "EIIR", "royal_cypher:wikidata": "Q33102113"}}, {"type": "node", "id": 3398046710, "lat": 51.4892534, "lon": -0.1466693, "tags": {"amenity": "recycling", "location": "overground", "recycling_type": "container"}}, {"type": "node", "id": 5196783598, "lat": 51.4901077, "lon": -0.1464765, "tags": {"amenity": "parking_entrance", "fee": "yes", "name": "Q Park Pimlico", "opening_hours": "24/7", "operator": "Q Park", "parking": "underground"}}, {"type": "node", "id": 5196784400, "lat": 51.4888398, "lon": -0.1479292, "tags": {"amenity": "clock", "check_date": "2021-10-28", "display": "digital"}}, {"type": "node", "id": 5198603424, "lat": 51.4905266, "lon": -0.1449332, "tags": {"amenity": "bar", "name": "Clarendon Cocktail Cellar"}}, {"type": "node", "id": 5198603490, "lat": 51.4906334, "lon": -0.1449043, "tags": {"amenity": "bicycle_parking", "bicycle_parking": "stands", "capacity": "6", "covered": "no"}}, {"type": "node", "id": 5245550801, "lat": 51.488886, "lon": -0.1466148, "tags": {"name": "Pimlico Launderette", "shop": "laundry"}}, {"type": "node", "id": 6898244785, "lat": 51.4899976, "lon": -0.1474415, "tags": {"amenity": "bench", "backrest": "yes"}}, {"type": "node", "id": 9336950697, "lat": 51.4885871, "lon": -0.1453508, "tags": {"amenity": "waste_basket"}}, {"type": "node", "id": 9336950698, "lat": 51.4885709, "lon": -0.1453426, "tags": {"amenity": "recycling", "recycling_type": "container"}}, {"type": "node", "id": 10280261647, "lat": 51.4904423, "lon": -0.1465945, "tags": {"amenity": "bicycle_parking", "bicycle_parking": "stands", "capacity": "8", "ref:GB:tflcid": "RWG050118"}}, {"type": "node", "id": 10280261648, "lat": 51.4880725, "lon": -0.1458531, "tags": {"amenity": "bicycle_parking", "bicycle_parking": "stands", "capacity": "6", "ref:GB:tflcid": "RWG050350"}}, {"type": "node", "id": 10280261649, "lat": 51.4904353, "lon": -0.1442484, "tags": {"amenity": "bicycle_parking", "bicycle_parking": "post_hoop", "capacity": "2", "ref:GB:tflcid": "RWG050164"}}, {"type": "node", "id": 12476624931, "lat": 51.4914763, "lon": -0.1462557, "tags": {"addr:city": "London", "addr:housenumber": "13", "addr:postcode": "SW1V 4PR", "addr:street": "Cambridge Street", "check_date:currency:XBT": "2025-01-06", "currency:ETH": "yes", "currency:XBT": "yes", "currency:XMR": "yes", "name": "Victrade Property Maintenance", "opening_hours": "Mo-Sa 09:00-18:00", "operator": "Victrade", "payment:lightning": "yes", "payment:onchain": "yes", "phone": "+442080588609", "phone:mobile": "+447774110440", "shop": "repair", "survey:date": "2025-01-05", "website": "https://www.victrade.co.uk"}}, {"type": "way", "id": 98866322, "center": {"lat": 51.4893231, "lon": -0.1491924}, "nodes": [866630971, 1143756039, 1143756040, 1143756041, 1143756042, 1143756044, 1143756045, 1143756047, 1143756048, 866630971], "tags": {"amenity": "parking", "source": "Bing"}}, {"type": "way", "id": 440531409, "center": {"lat": 51.4915621, "lon": -0.146544}, "nodes": [4382726625, 4382726624, 4382726626, 4382726628, 4382726625], "tags": {"addr:city": "London", "addr:housenumber": "44", "addr:postcode": "SW1V 4EP", "addr:street": "Hugh Street", "amenity": "restaurant", "building": "yes", "cuisine": "thai", "fhrs:id": "412463", "name": "Sri Suwoon Thai Restaurant", "phone": "+44 20 7828 0321", "smoking": "outside", "website": "https://www.srisuwoon.com/"}}, {"type": "way", "id": 536718790, "center": {"lat": 51.4904941, "lon": -0.1449157}, "nodes": [5198602191, 5198602188, 2142670333, 5198603489, 5198603486, 2142670320, 711535570, 5198602190, 5198602191], "tags": {"addr:city": "London", "addr:housenumber": "52", "addr:postcode": "SW1V 4QQ", "addr:street": "Cambridge Street", "amenity": "restaurant", "fhrs:id": "741318", "name": "The Cambridge St. Kitchen"}}, {"type": "way", "id": 536718825, "center": {"lat": 51.4905925, "lon": -0.1450344}, "nodes": [5198603661, 5198603660, 5198603659, 5198603658, 5198603657, 5198603656, 5198603661], "tags": {"addr:city": "London", "addr:postcode": "SW1V 4QQ", "addr:street": "Cambridge Street", "building": "retail", "building:colour": "light_brown", "building:levels": "3", "building:material": "brick", "name": "The Pilot Store", "ref:GB:uprn": "10033643908;10033643909;100022731082", "roof:colour": "darkgrey", "shop": "pilot", "website": "https://www.aopa.co.uk/index.php/pilot-supplies"}}, {"type": "way", "id": 1085197229, "center": {"lat": 51.4894243, "lon": -0.1475103}, "nodes": [9943491107, 9943491108, 9943491103, 9943491104, 9943491105, 9943491107], "tags": {"addr:city": "London", "addr:housenumber": "1", "addr:postcode": "SW1V 4LD", "addr:street": "Sutherland Street", "alt_name": "Ada. National College for Digital Skills", "amenity": "college", "building": "college", "check_date": "2025-06-25", "education": "college", "isced:level": "3", "max_age": "none", "min_age": "16", "name": "Ada, the National College for Digital Skills", "official_name": "Ada National College for Digital Skills", "phone": "+44 20 3105 0125", "ref:GB:uprn": "100023345044", "ref:edubase": "143540", "website": "https://www.ada.ac.uk", "wikipedia": "en:Ada, the National College for Digital Skills"}}, {"type": "way", "id": 1353015440, "center": {"lat": 51.4895827, "lon": -0.1458077}, "nodes": [12519156258, 12519156259, 12519156260, 12519156261, 12519156258], "tags": {"access": "private", "amenity": "bicycle_parking", "bicycle_parking": "shed", "capacity": "6", "covered": "yes", "fee": "yes", "locked": "yes"}}, {"type": "way", "id": 1353015441, "center": {"lat": 51.4905887, "lon": -0.1457903}, "nodes": [12519156262, 12519156263, 12519156264, 12519156265, 12519156262], "tags": {"access": "private", "amenity": "bicycle_parking", "bicycle_parking": "shed", "capacity": "6", "covered": "yes", "fee": "yes", "locked": "yes"}}, {"type": "way", "id": 1353015442, "center": {"lat": 51.491382, "lon": -0.1463057}, "nodes": [12519156266, 12519156267, 12519156268, 12519156269, 12519156266], "tags": {"access": "private", "amenity": "bicycle_parking", "bicycle_parking": "shed", "capacity": "6", "covered": "yes", "fee": "yes", "locked": "yes"}}]}